Waterbody ID Code (WBIC),Lake Name,Size (Acres),Official Max Depth,Official Mean Depth,Latitude,Longitude,Public Landing,Public Beach,Public Park,Fish Present,Lake Type,Water Clarity,County
2329600,Alder Lake,264,30 FEET,,46.08809940,-89.81958620,Yes,No,Yes,"Musky, Panfish, Largemouth Bass, Smallmouth Bass, Northern Pike and Walleye",DRAINAGE,,Vilas
967400,Aldridge Lake,142,12 FEET,,45.86594150,-89.30127620,No,No,Yes,"Panfish, Largemouth Bass, Northern Pike and Walleye",DRAINED,Low,"Vilas, Oneida"
1494600,Alexander Lake,618,36 FEET,,45.186975,-89.75712780,Yes,Yes,No,"Musky, Panfish, Largemouth Bass, Smallmouth Bass, Northern Pike and Walleye",DRAINAGE,Moderate,Lincoln
2332400,Allequash Lake,406,24 FEET,10 FEET,46.03693940,-89.62884350,Yes,No,Yes,"Musky, Panfish, Largemouth Bass, Smallmouth Bass, Northern Pike and Walleye",DRAINAGE,Moderate,Vilas
967900,Alma Lake,58,18 FEET,11 FEET,45.90976310,-89.42827520,Yes,No,No,"Musky, Panfish, Largemouth Bass, Smallmouth Bass and Walleye",SEEPAGE,Moderate,Vilas
2128100,Altoona Lake,720,25 FEET,10 FEET,44.81492990,-91.42309850,Yes,Yes,Yes,"Musky, Panfish, Smallmouth Bass and Walleye",DRAINAGE,Low,Eau Claire
968100,Alva Lake,199,43 FEET,,45.70820670,-89.59276910,Yes,No,Yes,"Musky, Panfish, Largemouth Bass, Smallmouth Bass and Walleye",SEEPAGE,Very Clear,Oneida
2359700,Amacoy Lake,283,20 FEET,13 FEET,45.398658,-91.31459020,Yes,No,No,"Musky, Panfish, Largemouth Bass, Smallmouth Bass, Northern Pike, Walleye and Catfish",DRAINAGE,Low,Rusk
2268600,Amik Lake,141,8 FEET,5 FEET,45.93236060,-90.03333830,No,No,Yes,"Musky, Panfish, Largemouth Bass, Smallmouth Bass, Northern Pike and Walleye",DRAINAGE,Low,Vilas
2858100,Amnicon Lake,390,31 FEET,10 FEET,46.47774930,-92.06104780,Yes,No,No,"Musky, Panfish, Largemouth Bass and Walleye",DRAINAGE,Low,Douglas
458700,Anderson Lake,177,40 FEET,23 FEET,45.11401760,-88.42143290,Yes,No,No,"Musky, Panfish, Largemouth Bass, Northern Pike and Walleye",DRAINAGE,Moderate,Oconto
1832100,Anderson Lake,15,17 FEET,10 FEET,45.603314,-91.92648980,Yes,No,No,"Panfish, Largemouth Bass, Northern Pike and Walleye",SEEPAGE,,Barron
2953800,Annabelle Lake,194,30 FEET,12 FEET,46.21590080,-89.68316540,Yes,No,Yes,"Musky, Panfish, Smallmouth Bass, Northern Pike and Walleye",DRAINAGE,Moderate,Vilas
968800,Anvil Lake,377,32 FEET,19 FEET,45.94339290,-89.06389380,Yes,No,Yes,"Panfish, Smallmouth Bass, Northern Pike and Walleye",SEEPAGE,Moderate,Vilas
2269400,Apeekwa Lake,206,5 FEET,,45.96838390,-90.03491120,Yes,No,Yes,"Musky, Panfish, Largemouth Bass, Northern Pike and Walleye",DRAINAGE,,Vilas
2614200,Apple Falls Flowage,62,40.3 FEET,12 FEET,45.15771390,-92.71115280,No,Yes,No,"Musky, Panfish, Smallmouth Bass, Northern Pike and Walleye",DRAINAGE,,Saint Croix
181400,Arbutus Lake,163,28 FEET,12 FEET,45.40135090,-88.86134240,Yes,No,No,"Panfish, Largemouth Bass and Walleye",SEEPAGE,Moderate,Forest
1727700,Arbutus Lake*,774,50 FEET,16 FEET,44.42818130,-90.72277210,Yes,Yes,Yes,"Musky, Panfish, Largemouth Bass, Smallmouth Bass, Northern Pike, Walleye and Catfish",DRAINAGE,Moderate,"Jackson, Clark"
417400,Archibald Lake,392,50 FEET,19 FEET,45.28299250,-88.586644,Yes,No,Yes,"Musky, Panfish, Largemouth Bass and Walleye",SEEPAGE,Very Clear,Oconto
2953200,Armour Lake,328,56 FEET,26 FEET,46.22117570,-89.71955640,No,No,No,"Musky, Panfish, Largemouth Bass, Smallmouth Bass, Northern Pike and Walleye",DRAINAGE,,Vilas
2754600,Armstrong Lake,44,35 FEET,,46.371289,-91.28103210,No,No,Yes,"Panfish, Largemouth Bass and Walleye",SEEPAGE,,Bayfield
1541500,Arrowhead Lake,96,43 FEET,,45.90633860,-89.69023550,Yes,No,Yes,"Musky, Panfish, Largemouth Bass, Smallmouth Bass, Northern Pike and Walleye",SPRING,,Vilas
2448800,Ashegon Lake,75,56 FEET,26 FEET,45.84334240,-91.31394230,Yes,No,No,"Musky, Panfish, Largemouth Bass, Smallmouth Bass, Trout and Walleye",SEEPAGE,,Sawyer
854300,Ashippun Lake,94,35 FEET,22 FEET,43.15757150,-88.47182730,Yes,No,No,"Panfish, Largemouth Bass, Northern Pike and Walleye",SPRING,Moderate,Waukesha
2734000,Atkins Lake,170,80 FEET,29 FEET,46.27819320,-91.03639450,Yes,No,Yes,"Panfish, Smallmouth Bass, Northern Pike, Trout and Walleye",DRAINED,Moderate,Bayfield
42400,Auburn Lake,90,29 FEET,14 FEET,43.59873220,-88.20670790,Yes,No,Yes,"Panfish, Largemouth Bass, Northern Pike and Walleye",DRAINAGE,Moderate,Fond du Lac
2675700,Austin Lake,83,48 FEET,23 FEET,45.888478,-92.27165680,No,No,No,"Panfish, Largemouth Bass, Smallmouth Bass, Northern Pike and Walleye",DRAINAGE,,Burnett
2956700,Averill Lake,68,5 FEET,,46.20453110,-89.76284730,No,No,No,"Musky, Panfish, Largemouth Bass, Northern Pike and Walleye",DRAINAGE,,Vilas
1220200,Avoca Lake,63,10 FEET,,43.19316110,-90.32803610,Yes,No,No,"Panfish, Largemouth Bass, Northern Pike and Walleye",DRAINAGE,,Iowa
2892100,Bad River Slough,173,24 FEET,5 FEET,46.630295,-90.64805010,No,No,No,"Musky, Panfish, Smallmouth Bass, Northern Pike and Walleye",DRAINAGE,Low,Ashland
516800,Bagley Flowage 1061,245,20 FEET,7 FEET,45.115368,-87.762535,Yes,No,No,"Panfish, Largemouth Bass, Smallmouth Bass, Northern Pike and Walleye",DRAINAGE,Moderate,Marinette
1216100,Balmoral Pond,59,25 FEET,9 FEET,43.226486,-90.470669,No,No,No,"Panfish, Largemouth Bass, Smallmouth Bass and Walleye",DRAINAGE,,Richland
2112800,Balsam Lake,325,49 FEET,25 FEET,45.64507270,-91.57758810,Yes,No,Yes,"Panfish, Largemouth Bass, Northern Pike and Walleye",DRAINAGE,Low,Washburn
2620600,Balsam Lake,1901,37 FEET,,45.46539560,-92.42729950,Yes,No,No,"Panfish, Largemouth Bass, Northern Pike and Walleye",DRAINAGE,,Polk
2382300,Barber Lake,138,21 FEET,9 FEET,45.88656680,-90.96807780,Yes,No,No,"Musky, Panfish, Largemouth Bass, Northern Pike and Walleye",DRAINAGE,Low,Sawyer
828600,Bark Lake,65,34 FEET,14 FEET,43.22031910,-88.20916270,No,No,No,"Panfish, Largemouth Bass, Northern Pike and Walleye",SPRING,Low,Washington
2400000,Barker Lake,213,12 FEET,5 FEET,45.91181930,-91.03128340,No,No,Yes,"Musky, Panfish, Largemouth Bass, Smallmouth Bass, Northern Pike and Walleye",DRAINAGE,Moderate,Sawyer
763200,Bass Bay Lake,104,23 FEET,12 FEET,42.89633040,-88.11682860,No,No,No,"Panfish, Largemouth Bass, Northern Pike and Walleye",DRAINAGE,Low,Waukesha
264200,Bass Lake,3,8 FEET,4 FEET,44.32858610,-89.18081390,No,No,No,"Musky, Panfish, Largemouth Bass, Northern Pike, Trout and Walleye",DRAINAGE,,Waupaca
2450500,Bass Lake,370,33 FEET,,45.06711360,-92.64891440,Yes,No,Yes,"Panfish, Largemouth Bass, Northern Pike and Walleye",SEEPAGE,Moderate,Saint Croix
2451300,Bass Lake,132,31 FEET,18 FEET,45.91506180,-91.99778170,Yes,No,No,"Panfish, Largemouth Bass, Northern Pike and Walleye",SEEPAGE,Very Clear,Washburn
2451700,Bass Lake,125,26 FEET,12 FEET,46.21574430,-91.85409560,No,No,No,"Panfish, Largemouth Bass, Northern Pike and Walleye",SEEPAGE,,Douglas
2451900,Bass Lake,187,35 FEET,,45.94692840,-91.63151960,Yes,No,No,"Musky, Panfish, Largemouth Bass and Walleye",SEEPAGE,,Washburn
2279800,Bass Lake,84,46 FEET,16 FEET,45.94027530,-90.60923180,Yes,No,No,"Musky, Panfish, Largemouth Bass, Northern Pike and Walleye",DRAINED,Moderate,Price
1604200,Bass Lake,272,15 FEET,,45.92421790,-89.137703,No,No,No,"Musky, Panfish, Largemouth Bass, Northern Pike and Walleye",SPRING,Moderate,Vilas
2282200,Bass Lake,57,41 FEET,18 FEET,45.81643920,-90.65441670,No,No,No,"Musky, Panfish, Largemouth Bass and Walleye",SEEPAGE,Low,Price
1833300,Bass Lake,101,66 FEET,13 FEET,45.70706160,-91.64770310,No,No,No,"Panfish, Largemouth Bass and Walleye",SEEPAGE,,Washburn
417900,Bass Lake,145,40 FEET,19 FEET,45.27634280,-88.620918,Yes,No,Yes,"Panfish, Largemouth Bass and Walleye",SEEPAGE,Very Clear,Oconto
2090900,Bass Lake,83,27 FEET,8 FEET,45.42583040,-91.49355350,Yes,No,No,"Musky, Panfish, Largemouth Bass, Northern Pike, Trout and Walleye",SEEPAGE,,Rusk
2744500,Bass Lake,51,9 FEET,6 FEET,46.33598860,-91.75920170,No,No,No,"Panfish, Largemouth Bass, Northern Pike and Walleye",SEEPAGE,,Douglas
702700,Bass Lake,104,68 FEET,28 FEET,45.890070,-88.138214,No,No,No,"Panfish, Largemouth Bass, Smallmouth Bass, Northern Pike and Walleye",DRAINAGE,,Florence
1580300,Bass Lake T37n R09e S30,184,20 FEET,,45.66047640,-89.42873170,Yes,No,Yes,"Musky, Panfish, Largemouth Bass, Smallmouth Bass, Northern Pike and Walleye",DRAINAGE,Low,Oneida
191700,Bass Lakes,111,35 FEET,,45.10131380,-88.86833970,No,No,No,"Panfish, Smallmouth Bass, Northern Pike and Walleye",SEEPAGE,Moderate,Menominee
2718500,Bean Lake,100,35 FEET,16 FEET,45.94682260,-91.58393420,Yes,No,Yes,"Panfish, Largemouth Bass, Northern Pike and Walleye",DRAINAGE,Moderate,Washburn
1527800,Bear Lake,295,20 FEET,8 FEET,45.76559470,-89.801541,Yes,No,Yes,"Panfish, Largemouth Bass, Smallmouth Bass, Northern Pike and Walleye",SPRING,Moderate,Oneida
2403200,Bear Lake,184,9 FEET,5 FEET,45.99012650,-90.80517680,No,No,Yes,"Musky, Panfish, Smallmouth Bass, Northern Pike and Walleye",DRAINAGE,,Ashland
2335400,Bear Lake,76,33 FEET,,46.16871210,-89.68037590,No,No,No,"Musky, Panfish, Smallmouth Bass and Walleye",SPRING,,Vilas
2857700,Bear Lake,49,10 FEET,8 FEET,46.39524590,-92.09594510,Yes,No,No,"Musky, Panfish, Largemouth Bass and Walleye",DRAINAGE,,Douglas
2105100,Bear Lake,1348,87 FEET,20 FEET,45.63033910,-91.82209420,Yes,No,Yes,"Panfish, Largemouth Bass, Smallmouth Bass, Northern Pike and Walleye",DRAINAGE,Low,"Washburn, Barron"
2618100,Bear Trap Lake,247,25 FEET,17 FEET,45.31280410,-92.41020660,Yes,No,Yes,"Musky, Panfish, Largemouth Bass, Northern Pike and Walleye",DRAINAGE,Low,Polk
1523600,Bearskin Lake,403,26 FEET,12 FEET,45.73208820,-89.682520,Yes,No,Yes,"Musky, Panfish, Largemouth Bass, Smallmouth Bass, Northern Pike and Walleye",DRAINAGE,Low,Oneida
2265100,Bearskull Lake,81,26 FEET,12 FEET,46.005059,-90.067780,Yes,No,No,"Panfish, Largemouth Bass, Northern Pike and Walleye",DRAINAGE,,Iron
2452300,Beartrack Lake,59,36 FEET,11 FEET,46.12550180,-92.04276470,Yes,No,No,"Panfish, Largemouth Bass, Northern Pike and Walleye",SEEPAGE,,Washburn
262300,Beasley Lake,12,47 FEET,21 FEET,44.328587,-89.180820,No,No,No,"Musky, Panfish, Largemouth Bass, Northern Pike, Trout and Walleye",DRAINAGE,Very Clear,Waupaca
970400,Beatrice Lake,3,11 FEET,,45.928363,-89.14258460,No,No,No,Panfish and Walleye,SEEPAGE,,Vilas
1834100,Beatrice Lake,23,68 FEET,,46.28879560,-89.92025330,No,No,No,Panfish and Walleye,SEEPAGE,,Vilas
182000,Beaulieu Lake,27,24 FEET,14 FEET,44.91060820,-88.75922020,Yes,No,No,"Panfish, Largemouth Bass, Northern Pike and Walleye",SEEPAGE,Moderate,Shawano
2452400,Beauregard Lake,87,20 FEET,11 FEET,46.34193730,-91.58977810,Yes,No,No,"Panfish, Largemouth Bass, Northern Pike and Walleye",SEEPAGE,,Douglas
2081200,Beaver Dam Lake,1163,106 FEET,3 FEET,45.551175,-92.032233,Yes,No,Yes,"Panfish, Largemouth Bass, Smallmouth Bass, Northern Pike, Trout and Walleye",SEEPAGE,,Barron
835100,Beaver Dam Lake,6718,7 FEET,5 FEET,43.486112,-88.863062,Yes,No,Yes,"Panfish, Largemouth Bass, Northern Pike and Walleye",DRAINAGE,Very Low,Dodge
2960600,Beaver Lake,62,20 FEET,,46.20618740,-89.58921620,No,No,No,"Panfish, Largemouth Bass, Smallmouth Bass, Northern Pike and Walleye",DRAINAGE,,Vilas
77300,Becker Lake,35,52.5 FEET,16 FEET,44.13088690,-88.04771840,Yes,No,No,"Panfish, Largemouth Bass, Northern Pike and Walleye",SEEPAGE,Low,Calumet
2955700,Belle Lake,57,30 FEET,,46.20925440,-89.69159790,No,No,No,"Musky, Panfish, Largemouth Bass, Northern Pike and Walleye",SEEPAGE,,Vilas
2755800,Bellevue Lake,63,45 FEET,18 FEET,46.43435570,-91.27679790,Yes,No,Yes,"Panfish, Largemouth Bass, Northern Pike and Walleye",SEEPAGE,,Bayfield
2678300,Benoit Lake,256,41 FEET,17 FEET,45.88690510,-92.09081660,Yes,No,No,"Musky, Panfish, Largemouth Bass, Smallmouth Bass, Northern Pike and Walleye",SEEPAGE,Moderate,Burnett
2327100,Benson Lake,28,15 FEET,,46.13113540,-89.91754110,No,No,Yes,"Musky, Panfish, Largemouth Bass, Smallmouth Bass, Northern Pike, Walleye and Sturgeon",DRAINAGE,,Vilas
1545600,Big Arbor Vitae Lake,1070,41 FEET,18 FEET,45.93026650,-89.64974340,Yes,No,Yes,"Musky, Panfish, Largemouth Bass and Walleye",DRAINAGE,Low,Vilas
2453300,Big Bass Lake,201,27 FEET,15 FEET,46.07671220,-91.90056910,Yes,No,Yes,"Panfish, Largemouth Bass, Northern Pike and Walleye",SEEPAGE,,Washburn
2627000,Big Blake Lake,208,14 FEET,9 FEET,45.49645540,-92.32955280,Yes,No,No,"Musky, Panfish, Largemouth Bass, Northern Pike and Walleye",DRAINAGE,Low,Polk
2641000,Big Butternut Lake,384,19 FEET,13 FEET,45.57107190,-92.45946020,Yes,No,Yes,"Panfish, Largemouth Bass, Northern Pike and Walleye",DRAINAGE,Very Low,Polk
971600,Big Carr Lake,209,75 FEET,,45.79091240,-89.62945430,Yes,No,Yes,"Musky, Panfish, Largemouth Bass, Smallmouth Bass, Trout and Walleye",SEEPAGE,Very Clear,Oneida
2321400,Big Crooked Lake,394,87 FEET,23 FEET,46.03492940,-89.85900610,No,No,No,"Musky, Panfish, Largemouth Bass, Smallmouth Bass and Walleye",DRAINAGE,,Vilas
2338800,Big Crooked Lake,665,34 FEET,,46.14059790,-89.67111880,No,No,No,"Musky, Panfish, Largemouth Bass, Smallmouth Bass, Trout and Walleye",DRAINAGE,,Vilas
2244200,Big Dardis Lake,140,23 FEET,11 FEET,45.73626160,-90.33417460,Yes,No,No,"Musky, Panfish, Largemouth Bass, Northern Pike and Walleye",DRAINAGE,,Price
2107500,Big Devil Lake,166,74.5 FEET,27 FEET,45.72963580,-91.73752450,Yes,No,Yes,"Panfish, Largemouth Bass, Northern Pike and Walleye",DRAINAGE,,Washburn
971700,Big Donahue Lake,92,28 FEET,,46.17085720,-89.31333980,No,No,No,"Panfish, Largemouth Bass and Walleye",SEEPAGE,Moderate,Vilas
1835100,Big Dummy Lake,114,54 FEET,12 FEET,45.57209360,-91.98369180,Yes,No,Yes,"Panfish, Largemouth Bass, Northern Pike and Walleye",SEEPAGE,Moderate,Barron
1427400,Big Eau Pleine Reservoir,6348,46 FEET,16 FEET,44.74090160,-89.82139450,Yes,No,Yes,"Musky, Smallmouth Bass, Northern Pike and Walleye",DRAINAGE,Low,Marathon
2230100,Big Falls Flowage,281,45 FEET,11 FEET,45.56972630,-90.95217160,Yes,No,No,"Musky, Panfish, Largemouth Bass, Smallmouth Bass, Northern Pike, Walleye, Sturgeon and Catfish",DRAINAGE,Low,Rusk
1610700,Big Fork Lake,663,37 FEET,17 FEET,45.82952760,-89.09755230,Yes,No,Yes,"Musky, Panfish, Largemouth Bass, Smallmouth Bass, Northern Pike and Walleye",DRAINAGE,Low,Oneida
1835200,Big Gibson Lake,121,15 FEET,,46.13785110,-89.55299910,Yes,No,Yes,"Musky, Panfish, Largemouth Bass and Walleye",SEEPAGE,Moderate,Vilas
2756000,Big Hurst Lake,47,44 FEET,,46.17963380,-89.752129,No,No,Yes,"Panfish, Largemouth Bass and Walleye",SEEPAGE,,Vilas
2336700,Big Kitten Lake,50,22 FEET,9 FEET,46.16534670,-89.621170,No,No,Yes,"Musky, Panfish, Largemouth Bass, Smallmouth Bass and Walleye",DRAINAGE,,Vilas
1613000,Big Lake,845,27 FEET,13 FEET,45.75952610,-89.11997680,Yes,No,No,"Musky, Panfish, Largemouth Bass, Smallmouth Bass, Northern Pike and Walleye",DRAINAGE,Low,Oneida
345100,Big Lake,63,38 FEET,,44.928073,-88.767595,No,No,No,"Panfish, Largemouth Bass, Northern Pike and Walleye",SPRING,Moderate,Shawano
2334700,Big Lake,827,61 FEET,,46.15473970,-89.76969930,Yes,No,Yes,"Musky, Panfish, Largemouth Bass, Smallmouth Bass, Northern Pike and Walleye",DRAINAGE,Moderate,Vilas
2963800,Big Lake,780,30 FEET,13 FEET,46.20013780,-89.44672060,Yes,No,No,"Musky, Panfish, Largemouth Bass, Smallmouth Bass, Northern Pike and Walleye",DRAINAGE,Moderate,Vilas
2615900,Big Lake,245,24 FEET,17 FEET,45.295742,-92.538820,Yes,No,No,"Panfish, Largemouth Bass, Northern Pike and Walleye",DRAINAGE,Low,Polk
2079000,Big Moon Lake,187,48 FEET,24 FEET,45.34309450,-92.11921510,Yes,No,No,"Musky, Panfish, Largemouth Bass, Northern Pike and Walleye",SEEPAGE,Low,Barron
1835300,Big Muskellunge Lake,897,70 FEET,26 FEET,46.01737450,-89.61489080,Yes,Yes,Yes,"Musky, Panfish, Largemouth Bass, Smallmouth Bass, Northern Pike and Walleye",SEEPAGE,Very Clear,Vilas
2270700,Big Pine Lake,642,22 FEET,,45.98432460,-90.06399240,No,No,No,"Musky, Panfish, Smallmouth Bass, Northern Pike and Walleye",DRAINAGE,,"Iron, Price"
1629500,Big Portage Lake,586,40 FEET,18 FEET,46.12560120,-89.28492270,Yes,No,No,"Panfish, Largemouth Bass, Smallmouth Bass and Walleye",SEEPAGE,Very Clear,Vilas
647500,Big Quinnesec Falls Flowage,101,73 FEET,27 FEET,45.78310920,-88.04487950,No,No,No,"Musky, Panfish, Largemouth Bass, Smallmouth Bass, Northern Pike and Walleye",DRAINAGE,,Marinette
1374800,Big Roche a Cri,217,20 FEET,9 FEET,44.05817510,-89.81554360,Yes,No,No,"Panfish, Largemouth Bass, Northern Pike and Walleye",DRAINAGE,Moderate,Adams
2627400,Big Round Lake,1014,17 FEET,10 FEET,45.524481,-92.30133540,Yes,No,No,"Musky, Panfish, Largemouth Bass, Northern Pike and Walleye",DRAINAGE,Low,Polk
1591100,Big Saint Germain Lake,1622,42 FEET,21 FEET,45.93429650,-89.51978640,Yes,No,Yes,"Musky, Panfish, Largemouth Bass, Smallmouth Bass, Northern Pike, Trout and Walleye",DRAINAGE,Low,Vilas
2676800,Big Sand Lake,1434,55 FEET,9 FEET,45.82458530,-92.21950970,Yes,No,No,"Panfish, Largemouth Bass, Smallmouth Bass, Northern Pike and Walleye",SEEPAGE,Moderate,Burnett
1602600,Big Sand Lake,1427,56 FEET,16 FEET,46.06303660,-88.98192730,Yes,No,Yes,"Musky, Panfish, Largemouth Bass, Smallmouth Bass, Northern Pike and Walleye",DRAINAGE,Low,Vilas
1612200,Big Stone Lake,607,57 FEET,21 FEET,45.80297340,-89.10174120,Yes,No,Yes,"Musky, Panfish, Largemouth Bass, Smallmouth Bass, Northern Pike and Walleye",DRAINAGE,Low,Oneida
2638700,Big Trade Lake,327,39 FEET,15 FEET,45.67040840,-92.61695670,Yes,No,Yes,"Musky, Panfish, Largemouth Bass, Northern Pike and Walleye",DRAINAGE,,Burnett
182200,Big Twin Lake,66,25 FEET,14 FEET,45.35492240,-88.91486960,Yes,No,No,"Panfish, Largemouth Bass, Northern Pike and Walleye",SEEPAGE,Very Clear,Langlade
2389700,Billy Boy Flowage,71,7 FEET,3 FEET,45.870113,-91.402626,No,No,No,"Musky, Panfish, Largemouth Bass, Smallmouth Bass, Northern Pike and Walleye",DRAINAGE,,Sawyer
1523800,Birch Lake,198,27 FEET,,45.72890060,-89.66040120,No,No,Yes,"Musky, Panfish, Largemouth Bass, Northern Pike and Walleye",DRAINAGE,Moderate,Oneida
2311100,Birch Lake,506,45 FEET,,46.21766750,-89.83838240,Yes,No,No,"Musky, Panfish, Largemouth Bass, Smallmouth Bass, Northern Pike and Walleye",DRAINAGE,Moderate,Vilas
2113000,Birch Lake,364,73 FEET,24 FEET,45.66900460,-91.54397340,Yes,Yes,Yes,"Panfish, Largemouth Bass, Smallmouth Bass, Northern Pike and Walleye",DRAINAGE,,"Washburn, Sawyer"
555500,Birch Lake,466,75 FEET,,45.56906490,-88.63804080,No,No,No,"Panfish, Largemouth Bass, Smallmouth Bass, Northern Pike and Walleye",DRAINED,Very Clear,Forest
972000,Bird Lake,97,40 FEET,17 FEET,45.79774160,-89.66647860,Yes,No,Yes,"Panfish, Largemouth Bass, Smallmouth Bass and Walleye",SEEPAGE,Very Clear,Oneida
1396900,Biron Flowage,2187,23 FEET,,44.44866260,-89.70634640,Yes,No,No,"Musky, Panfish, Largemouth Bass, Smallmouth Bass, Northern Pike, Walleye, Sturgeon and Catfish",DRAINAGE,Low,"Portage, Wood"
2381900,Black Dan Lake,121,37 FEET,13 FEET,45.89778890,-90.93237950,Yes,No,No,"Musky, Panfish, Largemouth Bass, Northern Pike and Walleye",DRAINAGE,Moderate,Sawyer
2401300,Black Lake,133,17 FEET,8 FEET,45.988478,-90.93284390,Yes,No,Yes,"Musky, Panfish, Largemouth Bass, Northern Pike and Walleye",DRAINAGE,Moderate,"Sawyer, Ashland"
1630100,Black Oak Lake,564,85 FEET,34 FEET,46.163005,-89.31612160,Yes,No,No,"Panfish, Largemouth Bass, Smallmouth Bass, Northern Pike, Trout and Walleye",SEEPAGE,Very Clear,Vilas
1708800,Black River Flowage 1610,190,34 FEET,10 FEET,44.297092,-90.844450,No,No,No,"Musky, Panfish, Smallmouth Bass, Northern Pike, Walleye and Catfish",DRAINAGE,,Jackson
1239400,Blackhawk Lake,212,42 FEET,,43.02107980,-90.28494650,Yes,No,Yes,"Panfish, Largemouth Bass, Smallmouth Bass and Walleye",DRAINAGE,Low,Iowa
2756200,Bladder Lake,84,35 FEET,16 FEET,46.59642480,-91.30213810,Yes,No,Yes,"Panfish, Largemouth Bass and Walleye",SEEPAGE,,Bayfield
2402200,Blaisdell Lake,341,19 FEET,4 FEET,45.94813630,-90.88191870,Yes,No,Yes,"Musky, Panfish, Largemouth Bass, Smallmouth Bass, Northern Pike and Walleye",DRAINAGE,Moderate,Sawyer
2256800,Blockhouse Lake,241,8 FEET,5 FEET,45.95751450,-90.33751760,Yes,No,Yes,"Musky, Panfish, Largemouth Bass, Northern Pike and Walleye",DRAINAGE,Low,Price
1538600,Blue Lake,441,49 FEET,25 FEET,45.83924280,-89.75803770,No,No,No,"Panfish, Largemouth Bass, Smallmouth Bass and Walleye",SEEPAGE,Very Clear,Oneida
1835700,Blueberry Lake,292,29 FEET,17 FEET,45.88126490,-91.25114960,Yes,No,No,"Panfish, Largemouth Bass, Smallmouth Bass, Northern Pike and Walleye",SEEPAGE,,Sawyer
2454100,Bluegill Lake,20,68 FEET,,46.21118890,-91.86035120,No,No,No,"Panfish, Largemouth Bass, Northern Pike and Walleye",SEEPAGE,,Douglas
973000,Bolger Lake,115,45 FEET,,45.841824,-89.719370,Yes,No,Yes,"Musky, Panfish, Largemouth Bass, Smallmouth Bass and Walleye",SEEPAGE,Very Clear,Oneida
2323400,Bolton Lake,140,36 FEET,,45.95874780,-89.80216020,No,No,No,"Musky, Panfish, Largemouth Bass, Northern Pike and Walleye",SPRING,,Vilas
2693700,Bond Lake,279,67 FEET,30 FEET,46.18340680,-91.87451750,Yes,No,No,"Panfish, Largemouth Bass, Smallmouth Bass, Northern Pike and Walleye",SEEPAGE,,Douglas
2742500,Bony Lake,190,55 FEET,23 FEET,46.31759250,-91.50718690,No,No,No,"Musky, Panfish, Largemouth Bass, Northern Pike and Walleye",DRAINAGE,Very Clear,Bayfield
1580200,Boom Lake,365,30 FEET,,45.65546360,-89.41656740,Yes,No,Yes,"Musky, Panfish, Largemouth Bass, Smallmouth Bass, Northern Pike and Walleye",DRAINAGE,Low,Oneida
2425000,Boos Lake,37,20 FEET,,46.08723120,-91.00460670,No,No,Yes,"Musky, Panfish, Largemouth Bass, Smallmouth Bass and Walleye",SEEPAGE,,Sawyer
418700,Boot Lake,230,38 FEET,19 FEET,45.26687770,-88.63386630,Yes,No,Yes,"Musky, Panfish, Largemouth Bass, Northern Pike and Walleye",SEEPAGE,Very Clear,Oconto
1619100,Boot Lake,286,15 FEET,9 FEET,45.968621,-89.32586530,Yes,No,No,"Musky, Panfish, Largemouth Bass, Northern Pike and Walleye",DRAINAGE,Low,Vilas
2297800,Boot Lake,178,16 FEET,10 FEET,46.03911350,-90.140922,No,No,No,"Musky, Panfish, Largemouth Bass, Northern Pike and Walleye",SEEPAGE,,Iron
1537800,Booth Lake,204,34 FEET,,45.88933160,-89.914764,Yes,No,Yes,"Musky, Panfish, Largemouth Bass, Northern Pike and Walleye",SPRING,,Oneida
491800,Boulder Lake,370,11 FEET,7 FEET,45.14899710,-88.635444,Yes,No,Yes,"Panfish, Largemouth Bass, Smallmouth Bass, Northern Pike and Walleye",SPRING,Moderate,"Langlade, Oconto"
2338300,Boulder Lake,516,23 FEET,12 FEET,46.12472820,-89.661350,Yes,No,Yes,"Musky, Panfish, Largemouth Bass, Smallmouth Bass, Northern Pike and Walleye",DRAINAGE,,Vilas
2711800,Boyle Brook Spring,7,7 FEET,,45.9465,-91.91477590,No,No,No,"Panfish, Largemouth Bass, Northern Pike and Walleye",SPRING,,Washburn
774700,Brandenburg Lake,42,6 FEET,,43.194960,-89.59238820,No,No,No,Walleye,SEEPAGE,,Dane
1541300,Brandy Lake,113,44 FEET,,45.90681420,-89.70084030,Yes,No,Yes,"Musky, Panfish, Largemouth Bass, Northern Pike and Walleye",DRAINAGE,Very Clear,Vilas
183000,Brekk Lake,46,25 FEET,,44.48855070,-89.20986490,Yes,No,No,"Panfish, Largemouth Bass, Northern Pike and Walleye",SEEPAGE,Moderate,Waupaca
1516800,Bridge Lake,419,15 FEET,8 FEET,45.54590390,-89.68331820,No,No,No,"Musky, Panfish, Largemouth Bass, Smallmouth Bass, Northern Pike and Walleye",DRAINAGE,Moderate,"Oneida, Lincoln"
750300,Browns Lake,397,44 FEET,8 FEET,42.68767470,-88.242453,Yes,No,Yes,"Panfish, Largemouth Bass, Northern Pike and Walleye",DRAINED,Low,Racine
704400,Brule River Flowage ,297,64 FEET,20 FEET,45.946426,-88.218390,No,No,No,"Musky, Panfish, Largemouth Bass, Smallmouth Bass, Northern Pike and Walleye",DRAINAGE,,Florence
2272600,Buckskin Lake,642,22 FEET,,45.89411130,-89.93706880,Yes,No,Yes,"Musky, Panfish, Largemouth Bass, Northern Pike and Walleye",SPRING,,"Vilas, Oneida"
763500,Buena Lake,72,8 FEET,,42.788638,-88.21939540,No,No,No,"Panfish, Largemouth Bass, Northern Pike, Walleye and Catfish",DRAINAGE,Low,Racine
168000,Buffalo Lake,2179,8 FEET,5 FEET,43.77448090,-89.40421560,Yes,No,No,"Panfish, Largemouth Bass, Northern Pike, Walleye and Catfish",DRAINAGE,,Marquette
974200,Buffalo Lake,105,27 FEET,,45.87878610,-89.569390,Yes,No,Yes,"Panfish, Largemouth Bass, Smallmouth Bass and Walleye",SEEPAGE,Moderate,Oneida
68300,Bullhead Lake,70,40 FEET,13 FEET,44.103333,-88.0372,Yes,No,No,"Panfish, Largemouth Bass, Northern Pike and Walleye",DRAINAGE,Low,Manitowoc
2436400,Burns Lake,41,9 FEET,5 FEET,46.02614070,-91.27009290,No,No,No,"Musky, Panfish, Largemouth Bass and Walleye",DRAINAGE,,Sawyer
2903800,Buskey Bay,88,51 FEET,15 FEET,46.52785510,-91.37493790,Yes,No,No,"Musky, Panfish, Largemouth Bass, Smallmouth Bass, Northern Pike and Walleye",SEEPAGE,Very Clear,Bayfield
2283300,Butternut Lake,983,32 FEET,14 FEET,45.96784070,-90.51864580,Yes,No,No,"Musky, Panfish, Largemouth Bass, Smallmouth Bass, Northern Pike, Walleye and Sturgeon",DRAINAGE,Low,"Ashland, Price"
692400,Butternut Lake,1246,42 FEET,,45.91169660,-88.98880580,Yes,No,Yes,"Panfish, Smallmouth Bass, Northern Pike and Walleye",SPRING,Very Clear,Forest
2456100,Cable Lake,179,24 FEET,7 FEET,45.86612280,-91.909828,Yes,No,No,"Panfish, Largemouth Bass, Northern Pike and Walleye",SEEPAGE,,Washburn
545400,Caldron Falls Reservoir*,1063,40 FEET,15 FEET,45.357293,-88.23170030,Yes,Yes,No,"Musky, Panfish, Largemouth Bass, Northern Pike and Walleye",DRAINAGE,Moderate,"Marinette, Oconto"
2434700,Callahan Lake,138,18 FEET,11 FEET,45.98921730,-91.23995070,No,No,No,"Musky, Panfish, Largemouth Bass and Walleye",DRAINAGE,,Sawyer
1378100,Camelot Lake,393,24 FEET,9 FEET,44.226917,-89.76481610,Yes,No,No,"Panfish, Largemouth Bass, Northern Pike and Walleye",DRAINAGE,Low,Adams
747100,Camp Lake,439,19 FEET,5 FEET,42.52101430,-88.14403670,Yes,No,Yes,"Panfish, Largemouth Bass, Northern Pike, Walleye and Catfish",DRAINAGE,,Kenosha
2965700,Camp One Lake,33,40 FEET,,46.50072830,-91.261470,No,No,Yes,"Panfish, Largemouth Bass and Walleye",SEEPAGE,,Bayfield
2757600,Camp Two Lake,3,53 FEET,,46.48879620,-91.24571870,No,No,No,"Panfish, Largemouth Bass and Walleye",SEEPAGE,,Bayfield
2757800,Canthook Lake,40,45 FEET,,46.47255260,-91.35744630,No,No,Yes,"Panfish, Largemouth Bass and Walleye",SEEPAGE,,Bayfield
976100,Carpenter Lake,339,16 FEET,,45.94375060,-89.147861,No,No,No,"Panfish, Largemouth Bass, Smallmouth Bass, Northern Pike and Walleye",SEEPAGE,Moderate,Vilas
1544800,Carrol Lake,330,27 FEET,16 FEET,45.893468,-89.62638670,Yes,No,Yes,"Musky, Panfish, Largemouth Bass, Northern Pike and Walleye",DRAINAGE,Low,"Vilas, Oneida"
2709100,Casey Lake,240,27 FEET,10 FEET,45.94347850,-91.96791860,Yes,No,No,"Panfish, Largemouth Bass, Northern Pike and Walleye",DRAINAGE,,Washburn
1345700,Castle Rock Lake,12981,35 FEET,,43.95555830,-90.03787860,Yes,Yes,Yes,"Musky, Panfish, Largemouth Bass, Smallmouth Bass, Northern Pike, Walleye, Sturgeon and Catfish",DRAINAGE,Low,"Adams, Juneau"
1603700,Catfish Lake,978,30 FEET,12 FEET,45.89644550,-89.19286340,Yes,No,No,"Musky, Panfish, Largemouth Bass, Smallmouth Bass, Northern Pike and Walleye",DRAINAGE,Low,Vilas
2309100,Catherine Lake,136,14 FEET,7 FEET,46.22499750,-89.95931910,No,No,Yes,"Musky, Panfish, Largemouth Bass, Smallmouth Bass, Northern Pike and Walleye",DRAINAGE,,Iron
2429100,Cattail Lake,22,3 FEET,,46.12297330,-90.94594570,No,No,Yes,"Musky, Panfish, Largemouth Bass, Smallmouth Bass and Walleye",DRAINAGE,,Sawyer
283800,Cedar Lake,46,50 FEET,,44.56985010,-88.95822280,Yes,No,No,"Panfish, Largemouth Bass, Northern Pike and Walleye",DRAINAGE,Moderate,Waupaca
25300,Cedar Lake,937,105 FEET,34 FEET,43.384172,-88.26262530,Yes,No,No,"Panfish, Largemouth Bass, Northern Pike and Walleye",SPRING,Moderate,Washington
2615100,Cedar Lake,1120,32 FEET,,45.21425060,-92.57199690,Yes,No,No,"Musky, Panfish, Largemouth Bass, Northern Pike and Walleye",DRAINAGE,Low,"Saint Croix, Polk"
2309700,Cedar Lake,187,21 FEET,11 FEET,46.20808890,-89.953647,Yes,No,Yes,"Musky, Panfish, Largemouth Bass, Smallmouth Bass, Northern Pike and Walleye",DRAINAGE,,Iron
747300,Center Lake,126,28 FEET,10 FEET,42.53849650,-88.13355520,Yes,No,No,"Panfish, Largemouth Bass, Northern Pike and Walleye",DRAINAGE,Low,Kenosha
1396000,Centralia Flowage,274,19 FEET,,44.367584,-89.857170,No,No,No,"Musky, Panfish, Smallmouth Bass, Northern Pike, Walleye and Catfish",DRAINAGE,Low,Wood
2350500,Chain Lake,454,74 FEET,18 FEET,45.29771120,-91.42993250,Yes,No,No,"Musky, Panfish, Largemouth Bass, Smallmouth Bass, Northern Pike and Walleye",SEEPAGE,Low,"Rusk, Chippewa"
1598000,Chain Lake,201,19 FEET,12 FEET,45.84291390,-89.36732820,Yes,No,Yes,"Musky, Panfish, Largemouth Bass, Northern Pike and Walleye",DRAINAGE,Low,Oneida
634500,Chalk Hill Flowage ,378,30 FEET,10 FEET,45.54927490,-87.81646310,Yes,No,No,"Panfish, Largemouth Bass, Smallmouth Bass, Northern Pike and Walleye",DRAINAGE,,Marinette
1840400,Charnley Lake,67,30 FEET,,46.01986550,-90.15106140,No,No,No,"Musky, Panfish, Largemouth Bass, Northern Pike and Walleye",SEEPAGE,,Iron
2722800,Chippanazie Lake,57,31 FEET,14 FEET,46.039510,-91.559682,Yes,No,No,"Panfish, Largemouth Bass, Northern Pike and Walleye",DRAINAGE,,Washburn
2152600,Chippewa Falls Flowage 5555,954,29 FEET,11 FEET,44.931560,-91.391040,Yes,No,No,"Musky, Panfish, Largemouth Bass, Smallmouth Bass, Northern Pike, Walleye, Sturgeon and Catfish",DRAINAGE,Moderate,"Eau Claire, Chippewa"
837300,Chub Lake,139,3 FEET,2 FEET,43.223699,-88.89228610,No,No,Yes,"Panfish, Northern Pike and Walleye",DRAINAGE,Low,Dodge
2616100,Church Pine Lake,87,45 FEET,23 FEET,45.27946710,-92.53617390,Yes,No,No,"Panfish, Largemouth Bass, Northern Pike and Walleye",DRAINAGE,Very Clear,Polk
2326700,Circle Lily Lake,218,35 FEET,,46.15908510,-89.91916870,Yes,No,Yes,"Musky, Panfish, Largemouth Bass, Smallmouth Bass, Northern Pike and Walleye",DRAINAGE,Moderate,"Vilas, Iron"
2899200,Cisco Lake,96,105 FEET,29 FEET,46.36285120,-91.25163590,Yes,No,Yes,"Panfish, Largemouth Bass, Smallmouth Bass, Northern Pike and Walleye",SEEPAGE,,Bayfield
2656200,Clam Lake,1338,11 FEET,5 FEET,45.79297740,-92.32535910,Yes,No,Yes,"Panfish, Largemouth Bass, Smallmouth Bass, Northern Pike, Walleye, Sturgeon and Catfish",DRAINAGE,,Burnett
2654500,Clam River Flowage,412,29 FEET,11 FEET,45.92730280,-92.51841070,Yes,No,Yes,"Panfish, Largemouth Bass, Smallmouth Bass, Northern Pike, Walleye, Sturgeon and Catfish",DRAINAGE,,Burnett
97700,Clark Lake,865,25 FEET,7 FEET,44.93652550,-87.20334610,Yes,No,Yes,"Panfish, Largemouth Bass, Smallmouth Bass, Northern Pike, Trout and Walleye",DRAINAGE,Very Clear,Door
2457700,Clear Lake,34,39 FEET,,46.21328340,-91.84555590,No,No,No,"Panfish, Largemouth Bass, Northern Pike and Walleye",SEEPAGE,,Douglas
1841300,Clear Lake,77,32 FEET,14 FEET,46.02079850,-91.26441050,Yes,No,No,"Musky, Panfish, Largemouth Bass and Walleye",SEEPAGE,Very Clear,Sawyer
2329000,Clear Lake,515,45 FEET,16 FEET,46.14716170,-89.81172550,Yes,No,Yes,"Musky, Panfish, Largemouth Bass, Smallmouth Bass, Northern Pike and Walleye",SPRING,,Vilas
977500,Clear Lake,873,95 FEET,31 FEET,45.87030790,-89.62479250,Yes,Yes,Yes,"Musky, Panfish, Largemouth Bass, Smallmouth Bass, Trout and Walleye",SEEPAGE,Very Clear,Oneida
1555400,Clear Lake,259,45 FEET,,45.53225620,-89.72252220,No,No,No,"Panfish, Largemouth Bass, Northern Pike and Walleye",SEEPAGE,Very Clear,Lincoln
2350600,Clear Lake,94,74 FEET,29 FEET,45.29785730,-91.41897250,Yes,No,Yes,"Musky, Panfish, Largemouth Bass, Smallmouth Bass, Northern Pike and Walleye",DRAINAGE,Moderate,Rusk
2623500,Clear Lake,30,26 FEET,13 FEET,45.26138090,-92.27865470,Yes,No,No,"Panfish, Largemouth Bass, Northern Pike and Walleye",SEEPAGE,,Polk
977100,Clear Lake,37,24 FEET,,45.61660480,-89.35428190,No,No,No,"Panfish, Largemouth Bass and Walleye",SEEPAGE,Moderate,Oneida
2303700,Clear Lake,66,20 FEET,,46.24346520,-90.01707840,No,No,No,"Largemouth Bass, Northern Pike and Walleye",DRAINAGE,,Iron
1616400,Clearwater Lake,360,48 FEET,21 FEET,45.850456,-89.200195,No,No,No,"Musky, Panfish, Largemouth Bass, Smallmouth Bass, Northern Pike and Walleye",SPRING,Moderate,"Oneida, Vilas"
2963500,Cochran Lake,133,12 FEET,,46.18782850,-89.51604360,No,No,Yes,"Panfish, Largemouth Bass, Northern Pike and Walleye",SPRING,Low,Vilas
2922200,Coffee Lake,48,16 FEET,9 FEET,46.28218990,-90.94000130,No,No,Yes,"Panfish, Largemouth Bass, Northern Pike and Walleye",DRAINAGE,,Bayfield
270700,Colic Bayou,51,24 FEET,,44.317333,-88.851715,No,No,No,"Panfish, Largemouth Bass, Smallmouth Bass, Northern Pike and Walleye",DRAINAGE,,Waupaca
270200,Collins Lake,43,56 FEET,21 FEET,44.60052040,-89.34207480,Yes,Yes,Yes,"Panfish, Largemouth Bass, Northern Pike and Walleye",SEEPAGE,Moderate,Portage
2702100,Colton Flowage,47,22 FEET,8 FEET,46.14876960,-91.65388170,Yes,No,No,"Panfish, Largemouth Bass, Smallmouth Bass, Northern Pike and Walleye",DRAINAGE,,Washburn
262400,Columbia Lake,84,72 FEET,25 FEET,44.32969980,-89.17439770,Yes,No,No,"Musky, Panfish, Largemouth Bass, Smallmouth Bass, Northern Pike, Trout and Walleye",DRAINAGE,Moderate,Waupaca
1616900,Columbus Lake,677,26 FEET,,45.83742290,-89.25253780,No,No,Yes,"Musky, Panfish, Largemouth Bass, Smallmouth Bass, Northern Pike and Walleye",DRAINAGE,Low,Oneida
2275100,Connors Lake,410,82 FEET,38 FEET,45.75189470,-90.73625360,Yes,No,Yes,"Musky, Panfish, Largemouth Bass, Smallmouth Bass and Walleye",DRAINAGE,Moderate,Sawyer
2181400,Cornell Flowage,897,55.7 FEET,,45.17100160,-91.16677090,Yes,Yes,No,"Musky, Panfish, Largemouth Bass, Smallmouth Bass, Northern Pike, Walleye, Sturgeon and Catfish",DRAINAGE,Moderate,Chippewa
2171000,Cornell Lake,194,39 FEET,16 FEET,45.11766350,-91.33794720,Yes,No,No,"Panfish, Largemouth Bass, Northern Pike and Walleye",SEEPAGE,Low,Chippewa
585100,Cosgrove Lake,76,26 FEET,6 FEET,45.89387440,-88.16525580,No,No,No,"Panfish, Smallmouth Bass, Northern Pike and Walleye",SEEPAGE,,Florence
1246500,Cox Hollow Lake,81,28 FEET,,43.00882120,-90.11051620,Yes,Yes,Yes,"Panfish, Largemouth Bass and Walleye",DRAINAGE,Low,Iowa
2953500,Crab Lake,909,60 FEET,22 FEET,46.19472490,-89.71943780,Yes,No,Yes,"Musky, Panfish, Largemouth Bass, Smallmouth Bass, Northern Pike and Walleye",DRAINAGE,Very Clear,Vilas
2693100,Cranberry Lake,169,19 FEET,11 FEET,46.190630,-91.92799070,Yes,No,No,"Panfish, Largemouth Bass, Northern Pike and Walleye",DRAINAGE,,Douglas
2741700,Cranberry Lake,122,12 FEET,,46.26316880,-91.54484280,No,No,Yes,"Musky, Panfish, Largemouth Bass, Northern Pike and Walleye",DRAINAGE,Very Clear,Bayfield
2732800,Cranberry Lake,56,20 FEET,,46.25076670,-91.09963070,No,No,Yes,"Panfish, Largemouth Bass, Northern Pike and Walleye",SEEPAGE,,Bayfield
2217000,Cranberry Lake,466,18 FEET,7 FEET,45.61899470,-90.352803,Yes,No,Yes,"Panfish, Largemouth Bass, Northern Pike and Walleye",DRAINAGE,,Price
2670700,Cranberry Lake,66,26 FEET,6 FEET,45.99227660,-92.31725490,No,No,No,"Panfish, Largemouth Bass, Northern Pike and Walleye",DRAINAGE,Moderate,Burnett
1603800,Cranberry Lake,924,23 FEET,9 FEET,45.90152540,-89.16366020,Yes,No,No,"Musky, Panfish, Largemouth Bass, Smallmouth Bass, Northern Pike and Walleye",DRAINAGE,Low,"Vilas, Oneida"
388500,Crane Lake,355,25 FEET,12 FEET,45.41153650,-88.89227510,Yes,No,No,"Panfish, Largemouth Bass, Northern Pike and Walleye",SPRING,Low,Forest
2237500,Crane and Chase Lake,88,22 FEET,13 FEET,45.74067140,-90.50591530,Yes,No,No,"Panfish, Largemouth Bass, Northern Pike and Walleye",DRAINED,Low,Price
183800,Crawford Lake,21,20 FEET,10 FEET,45.43121950,-88.85729450,No,No,No,"Panfish, Largemouth Bass and Walleye",SEEPAGE,,Forest
2322800,Crawling Stone Lake,1483,87 FEET,31 FEET,45.93819850,-89.88380770,No,No,Yes,"Musky, Panfish, Largemouth Bass, Smallmouth Bass, Northern Pike and Walleye",DRAINAGE,Very Clear,Vilas
1564200,Crescent Lake,616,32 FEET,17 FEET,45.59868050,-89.51785690,Yes,No,No,"Musky, Panfish, Largemouth Bass, Smallmouth Bass, Northern Pike and Walleye",SPRING,Moderate,Oneida
2287200,Crowley Flowage 802,354,23 FEET,8 FEET,45.86908290,-90.54403830,Yes,No,No,"Musky, Northern Pike, Trout, Walleye and Sturgeon",DRAINAGE,Low,Price
45200,Crystal Lake,129,61 FEET,20 FEET,43.805811,-88.01785250,Yes,No,No,"Panfish, Largemouth Bass, Northern Pike and Walleye",SEEPAGE,Moderate,Sheboygan
2874700,Crystal Lake,85,27 FEET,15 FEET,46.55177490,-91.47581110,No,No,No,"Panfish, Largemouth Bass, Northern Pike and Walleye",SEEPAGE,,Bayfield
2897300,Crystal Lake,117,29 FEET,17 FEET,46.24641630,-91.14535940,Yes,No,Yes,"Panfish, Largemouth Bass, Smallmouth Bass and Walleye",SEEPAGE,,Bayfield
2459700,Crystal Lake,291,22 FEET,11 FEET,46.187885,-91.95129060,Yes,No,Yes,"Panfish, Largemouth Bass, Smallmouth Bass, Northern Pike and Walleye",SEEPAGE,,Douglas
979100,Crystal Lake,105,22 FEET,16 FEET,45.54194420,-89.70663740,Yes,Yes,No,"Panfish, Largemouth Bass, Northern Pike and Walleye",SEEPAGE,Moderate,Lincoln
1590000,Cunard Lake,44,23 FEET,,45.84813910,-89.58763520,Yes,No,Yes,"Musky, Panfish, Largemouth Bass, Northern Pike and Walleye",SPRING,Moderate,Oneida
979300,Currie Lake,95,14 FEET,,45.69546790,-89.69638710,No,No,No,"Panfish, Largemouth Bass and Walleye",SEEPAGE,Moderate,Oneida
1241300,Cynthia Slough,13,9 FEET,,43.16257220,-90.07645280,No,No,No,"Panfish, Largemouth Bass, Smallmouth Bass, Northern Pike and Walleye",DRAINED,,Sauk
2229200,Dairyland Reservoir (Flambeau),1870,70 FEET,24 FEET,45.52923110,-91.00250570,Yes,No,No,"Musky, Panfish, Largemouth Bass, Smallmouth Bass, Northern Pike, Walleye, Sturgeon and Catfish",DRAINAGE,Moderate,Rusk
264700,Dake Lake,35,26 FEET,10 FEET,44.32385210,-89.16903910,Yes,No,No,"Musky, Panfish, Largemouth Bass, Northern Pike, Trout and Walleye",DRAINAGE,Moderate,Waupaca
1596900,Dam Lake,732,32 FEET,18 FEET,45.86555840,-89.400668,Yes,No,Yes,"Musky, Panfish, Largemouth Bass, Smallmouth Bass, Northern Pike and Walleye",DRAINAGE,Low,Oneida
2674500,Danbury Flowage,242,10 FEET,,45.948768,-92.40376110,Yes,No,No,"Musky, Panfish, Largemouth Bass, Smallmouth Bass, Northern Pike, Walleye, Sturgeon and Catfish",DRAINAGE,,Burnett
841700,Danville Millpond,17,3 FEET,,43.32461050,-88.95076390,No,No,Yes,"Panfish, Northern Pike, Walleye and Catfish",DRAINAGE,,Dodge
2722400,Davis Flowage,199,12 FEET,,46.03700740,-91.59280770,No,No,No,"Panfish, Largemouth Bass, Northern Pike and Walleye",DRAINAGE,,Washburn
139300,DeNeveu Lake,80,67 FEET,,43.73209970,-88.39471050,No,No,No,"Panfish, Largemouth Bass, Northern Pike and Walleye",SEEPAGE,Moderate,Fond du Lac
1252600,Deacon Thomas Lake,15,12 FEET,,43.20354560,-89.86025490,No,No,Yes,"Panfish, Largemouth Bass, Northern Pike, Walleye and Catfish",SPRING,,Sauk
2054200,Dead Lake,77,7 FEET,,44.57512170,-92.04540950,Yes,No,Yes,"Panfish, Largemouth Bass, Northern Pike, Walleye and Catfish",DRAINAGE,,Pepin
1843800,Dead Lake,42,26 FEET,,46.07724960,-91.20867740,No,No,No,"Musky, Panfish, Largemouth Bass and Walleye",SEEPAGE,,Sawyer
2316600,Dead Pike Lake,309,80 FEET,26 FEET,46.10289410,-89.89890770,Yes,No,Yes,"Musky, Panfish, Largemouth Bass, Smallmouth Bass, Northern Pike and Walleye",DRAINAGE,Moderate,Vilas
1304600,Decorah Lake,314,15 FEET,,43.80722520,-90.084991,Yes,No,Yes,"Panfish, Largemouth Bass, Northern Pike and Walleye",DRAINAGE,Low,Juneau
184500,Deep Hole Lake,95,15 FEET,,45.46012680,-88.90404020,No,No,No,Panfish and Walleye,SEEPAGE,,Forest
2760100,Deep Lake,100,28 FEET,17 FEET,46.55532060,-91.45980450,No,No,No,"Panfish, Largemouth Bass, Northern Pike and Walleye",SEEPAGE,,Bayfield
1844000,Deep Lake,43,25 FEET,13 FEET,45.76744170,-91.77018250,Yes,No,No,"Musky, Panfish, Largemouth Bass and Walleye",SEEPAGE,Moderate,Washburn
500000,Deer Lake,13,34 FEET,,45.38601470,-88.16002540,No,No,No,"Panfish, Northern Pike and Walleye",SEEPAGE,Very Clear,Marinette
2708900,Deer Lake,105,19 FEET,,45.95114620,-92.00086210,No,No,No,"Panfish, Largemouth Bass, Northern Pike and Walleye",DRAINAGE,,Washburn
1612300,Deer Lake,188,20 FEET,10 FEET,45.78822520,-89.10583880,No,No,No,"Musky, Panfish, Largemouth Bass, Smallmouth Bass, Northern Pike and Walleye",DRAINAGE,Low,Oneida
1519600,Deer Lake,150,62 FEET,24 FEET,45.54673570,-89.69506910,Yes,No,No,"Musky, Panfish, Largemouth Bass, Smallmouth Bass, Northern Pike and Walleye",SPRING,Very Clear,Lincoln
2619400,Deer Lake,786,46 FEET,26 FEET,45.40265510,-92.52274920,Yes,No,No,"Musky, Panfish, Largemouth Bass, Northern Pike and Walleye",DRAINAGE,Moderate,Polk
2311500,Deer Lake,40,21 FEET,,46.21803230,-89.86533190,No,No,No,"Panfish, Largemouth Bass, Northern Pike and Walleye",DRAINAGE,,Vilas
1601300,Deerskin Lake,301,18 FEET,6 FEET,45.97560590,-89.16910790,Yes,No,Yes,"Musky, Panfish, Largemouth Bass, Smallmouth Bass, Northern Pike and Walleye",SPRING,Moderate,Vilas
793600,Delavan Lake,1906,52 FEET,21 FEET,42.60454840,-88.61082880,Yes,Yes,No,"Musky, Panfish, Largemouth Bass, Smallmouth Bass, Northern Pike and Walleye",DRAINAGE,Low,Walworth
2149900,Dells Pond,622,30 FEET,9 FEET,44.82459930,-91.49680120,Yes,No,Yes,"Musky, Panfish, Largemouth Bass, Smallmouth Bass, Northern Pike, Walleye and Catfish",DRAINAGE,Moderate,Eau Claire
1295400,Delton Lake,249,16 FEET,8 FEET,43.60013190,-89.77878510,Yes,No,No,"Panfish, Largemouth Bass, Northern Pike, Walleye and Catfish",DRAINAGE,Low,Sauk
2674200,Des Moines Lake,215,37 FEET,23 FEET,45.99660230,-92.13500560,Yes,No,No,"Musky, Panfish, Largemouth Bass, Northern Pike and Walleye",SEEPAGE,,Burnett
980900,Devils Lake,374,47 FEET,30 FEET,43.417352,-89.73162750,Yes,Yes,Yes,"Panfish, Largemouth Bass, Smallmouth Bass, Northern Pike, Trout and Walleye",SEEPAGE,Very Clear,Sauk
2461100,Devils Lake,975,24 FEET,14 FEET,45.909279,-92.33776980,Yes,No,No,"Panfish, Largemouth Bass, Northern Pike and Walleye",SEEPAGE,,Burnett
396700,Devils Lake,28,25 FEET,,45.54764550,-88.833642,No,No,No,"Panfish, Largemouth Bass and Walleye",SEEPAGE,,Forest
2742800,Devils Lake,22,44 FEET,,46.29268870,-91.49587720,No,No,No,"Musky, Panfish, Largemouth Bass, Northern Pike and Walleye",DRAINAGE,,Bayfield
1369900,Dexter Lake,287,17 FEET,6 FEET,44.38714730,-90.12001620,Yes,No,Yes,"Panfish, Largemouth Bass, Smallmouth Bass, Northern Pike and Walleye",DRAINAGE,Low,Wood
1537100,Diamond Lake,117,17 FEET,,45.87480930,-89.90750450,Yes,No,Yes,"Panfish, Largemouth Bass, Smallmouth Bass, Northern Pike and Walleye",SEEPAGE,Low,Oneida
1757200,Diamond Lake,49,30 FEET,14 FEET,45.10825120,-90.68011970,Yes,No,Yes,"Panfish, Largemouth Bass, Northern Pike and Walleye",DRAINAGE,Low,Taylor
2897100,Diamond Lake,322,83 FEET,33 FEET,46.26266170,-91.14530860,Yes,No,Yes,"Panfish, Largemouth Bass, Smallmouth Bass, Northern Pike, Trout and Walleye",DRAINAGE,Very Clear,Bayfield
1844700,Diamond Lake,115,40 FEET,,46.04377540,-89.71585090,Yes,No,Yes,"Musky, Panfish, Largemouth Bass, Smallmouth Bass and Walleye",SEEPAGE,,Vilas
1612900,Dog Lake,202,22 FEET,8 FEET,45.77781610,-89.10974430,No,No,No,"Musky, Panfish, Largemouth Bass, Smallmouth Bass, Northern Pike and Walleye",DRAINAGE,Low,Oneida
2299600,Dollar Lake,9,23 FEET,,46.17689570,-90.15355290,No,No,Yes,"Panfish, Largemouth Bass, Northern Pike and Walleye",DRAINAGE,,Iron
1845600,Dorothy Dunn Lake,77,22 FEET,,46.09381130,-89.47014920,Yes,No,Yes,"Musky, Panfish, Largemouth Bass, Smallmouth Bass and Walleye",SEEPAGE,Moderate,Vilas
2858300,Dowling Lake,141,13 FEET,7 FEET,46.47404980,-92.04486880,No,No,No,"Musky, Panfish, Largemouth Bass and Walleye",DRAINAGE,,Douglas
855200,Druid Lake,122,53 FEET,25 FEET,43.27797240,-88.407543,Yes,No,No,"Panfish, Largemouth Bass, Northern Pike and Walleye",DRAINAGE,Low,Washington
2899400,Drummond Lake,97,49 FEET,18 FEET,46.34392460,-91.26113810,Yes,No,Yes,"Panfish, Largemouth Bass, Northern Pike and Walleye",DRAINAGE,,Bayfield
2100300,Duck Lake,109,26 FEET,14 FEET,45.558484,-91.992525,Yes,No,No,"Panfish, Largemouth Bass, Northern Pike and Walleye",DRAINAGE,,Barron
1599900,Duck Lake,106,20 FEET,10 FEET,45.945468,-89.23666380,No,No,No,"Musky, Panfish, Largemouth Bass, Smallmouth Bass, Northern Pike and Walleye",DRAINAGE,Low,Vilas
2651800,Dunham Lake,231,63 FEET,35 FEET,45.75641440,-92.47191020,Yes,No,No,"Panfish, Largemouth Bass, Northern Pike and Walleye",DRAINAGE,,Burnett
2709800,Dunn Lake,181,39 FEET,18 FEET,45.93738530,-91.93714150,Yes,No,No,"Panfish, Largemouth Bass, Northern Pike and Walleye",DRAINAGE,,Washburn
2240100,Duroy Lake,350,18 FEET,5 FEET,45.69327560,-90.38825540,No,No,Yes,"Musky, Panfish, Largemouth Bass, Smallmouth Bass, Northern Pike and Walleye",DRAINAGE,Low,Price
2396800,Durphee Lake,198,16 FEET,10 FEET,45.904612,-91.45921080,Yes,No,No,"Panfish, Largemouth Bass, Smallmouth Bass, Northern Pike and Walleye",SEEPAGE,,Sawyer
1286500,Dutch Hollow Lake,172,38 FEET,,43.602066,-90.188780,Yes,No,No,Largemouth Bass and Walleye,DRAINAGE,Very Clear,Sauk
2902900,Eagle Lake,163,52 FEET,14 FEET,46.49877670,-91.35720180,No,No,Yes,"Musky, Panfish, Largemouth Bass, Smallmouth Bass, Northern Pike and Walleye",DRAINAGE,Very Clear,Bayfield
1600200,Eagle Lake,575,34 FEET,16 FEET,45.93222070,-89.20819040,Yes,No,Yes,"Musky, Panfish, Largemouth Bass, Smallmouth Bass, Northern Pike and Walleye",DRAINAGE,Low,Vilas
759800,Eagle Lake,529,11 FEET,6 FEET,42.70330230,-88.12519990,Yes,No,Yes,"Musky, Panfish, Largemouth Bass, Northern Pike and Walleye",DRAINAGE,Low,Racine
1523000,East Horsehead Lake,191,27 FEET,,45.70017570,-89.61112240,Yes,No,Yes,"Musky, Panfish, Largemouth Bass, Northern Pike and Walleye",SPRING,Moderate,Oneida
702400,East Lake,48,27 FEET,12 FEET,45.89315380,-88.11600160,No,No,No,"Panfish, Largemouth Bass, Smallmouth Bass, Northern Pike and Walleye",DRAINAGE,Moderate,Florence
2133200,Eau Claire Lake,1360,25 FEET,,44.76128460,-91.10533630,Yes,No,Yes,"Musky, Panfish, Largemouth Bass, Smallmouth Bass and Walleye",DRAINAGE,Low,Eau Claire
2630200,Echo Lake,172,41 FEET,20 FEET,45.44593380,-92.12969660,Yes,No,Yes,"Panfish, Largemouth Bass, Northern Pike and Walleye",SEEPAGE,Moderate,Barron
2301800,Echo Lake,205,25 FEET,9 FEET,46.18204960,-90.06076270,Yes,No,Yes,"Musky, Panfish, Largemouth Bass, Smallmouth Bass, Northern Pike and Walleye",DRAINAGE,,Iron
1597800,Echo Lake,93,18 FEET,8 FEET,45.82681230,-89.38137490,No,No,No,"Musky, Panfish, Largemouth Bass, Smallmouth Bass, Northern Pike and Walleye",DRAINAGE,Low,Oneida
2761100,Eko Lake,2,18 FEET,,46.68816350,-91.05415530,No,No,Yes,"Panfish, Largemouth Bass, Northern Pike and Walleye",SEEPAGE,,Bayfield
742800,Elizabeth Lake,725,32 FEET,11 FEET,42.50695980,-88.27064050,Yes,No,No,"Panfish, Largemouth Bass, Smallmouth Bass, Northern Pike and Walleye",DRAINAGE,Low,Kenosha
2240000,Elk Lake,87,25 FEET,8 FEET,45.69696640,-90.403232,Yes,Yes,No,"Musky, Panfish, Smallmouth Bass, Northern Pike and Walleye",DRAINAGE,Low,Price
59300,Elkhart Lake,292,119 FEET,46 FEET,43.82623130,-88.02509430,Yes,No,No,"Musky, Panfish, Largemouth Bass, Smallmouth Bass, Northern Pike, Trout and Walleye",SPRING,Moderate,Sheboygan
651600,Emily Lake,183,43 FEET,9 FEET,45.87449060,-88.28339580,Yes,No,No,"Panfish, Largemouth Bass, Northern Pike and Walleye",DRAINAGE,Moderate,Florence
983500,Emma Lake,227,17 FEET,,45.59011330,-89.49948130,Yes,No,No,"Musky, Panfish, Largemouth Bass, Smallmouth Bass and Walleye",SEEPAGE,Moderate,Oneida
2914800,English Lake,232,40 FEET,12 FEET,46.31286450,-90.76822470,Yes,No,Yes,"Musky, Panfish, Largemouth Bass and Walleye",DRAINAGE,Moderate,Ashland
68100,English Lake,48,85 FEET,,44.04554820,-87.78573120,Yes,No,No,"Panfish, Largemouth Bass, Northern Pike and Walleye",SEEPAGE,Moderate,Manitowoc
1579700,Enterprise Lake,509,27 FEET,10 FEET,45.45476440,-89.23884780,Yes,No,No,"Musky, Panfish, Largemouth Bass, Smallmouth Bass, Northern Pike and Walleye",DRAINAGE,Low,Langlade
983600,Erickson Lake,110,18 FEET,,45.94738510,-89.62254040,Yes,No,Yes,"Panfish, Largemouth Bass and Walleye",DRAINAGE,Moderate,Vilas
1764000,Esadore Lake,48,36 FEET,15 FEET,45.19218910,-90.44660790,Yes,No,No,"Panfish, Largemouth Bass, Northern Pike and Walleye",DRAINAGE,Low,Taylor
2339900,Escanaba Lake,303,26 FEET,14 FEET,46.06413190,-89.58597150,Yes,No,Yes,"Musky, Panfish, Largemouth Bass, Northern Pike and Walleye",DRAINAGE,Moderate,Vilas
93100,Europe Lake,297,10 FEET,6 FEET,45.27262080,-86.98635860,Yes,No,Yes,"Panfish, Smallmouth Bass, Northern Pike and Walleye",SEEPAGE,,Door
2761600,Everett Lake,34,55 FEET,,46.47012450,-91.29374050,No,No,Yes,"Panfish, Largemouth Bass, Northern Pike and Walleye",SEEPAGE,,Bayfield
2277600,Evergreen Lake,204,25 FEET,12 FEET,45.81210720,-90.68906010,No,No,Yes,"Musky, Panfish, Largemouth Bass and Walleye",DRAINAGE,Low,Sawyer
2670900,Falk Lake,76,30 FEET,11 FEET,45.97851960,-92.31851440,Yes,No,No,"Panfish, Largemouth Bass, Northern Pike and Walleye",DRAINAGE,,Burnett
2435900,Fawn Lake,28,35 FEET,15 FEET,46.11366320,-91.21935780,No,No,No,"Musky, Panfish, Largemouth Bass, Smallmouth Bass and Walleye",DRAINAGE,Low,Sawyer
2328900,Fawn Lake,70,14 FEET,7 FEET,46.13423780,-89.82585690,No,No,Yes,"Musky, Panfish, Largemouth Bass, Smallmouth Bass, Northern Pike and Walleye",DRAINAGE,,Vilas
1591000,Fawn Lake,19,10 FEET,,45.92101670,-89.53150220,No,No,No,"Musky, Panfish, Largemouth Bass, Northern Pike and Walleye",DRAINAGE,Moderate,Vilas
677100,Fay Lake,272,10 FEET,8 FEET,45.86728040,-88.63757170,Yes,No,Yes,"Panfish, Largemouth Bass, Northern Pike and Walleye",DRAINAGE,,Florence
2323000,Fence Lake,3483,86 FEET,37 FEET,45.95085580,-89.83940120,No,No,No,"Musky, Panfish, Largemouth Bass, Smallmouth Bass, Northern Pike, Trout and Walleye",DRAINAGE,,Vilas
1848400,Fenton Lake,70,52 FEET,15 FEET,45.666218,-91.739105,Yes,No,No,"Panfish, Largemouth Bass, Smallmouth Bass, Northern Pike and Walleye",SEEPAGE,,Washburn
722700,Ferry Lake,71,10 FEET,,42.89759030,-91.12111260,No,No,Yes,"Panfish, Largemouth Bass, Northern Pike, Walleye and Catfish",DRAINAGE,,Grant
1571100,Fifth Lake,238,9 FEET,,45.63933630,-89.25550040,Yes,No,No,"Musky, Panfish, Largemouth Bass, Smallmouth Bass, Northern Pike and Walleye",DRAINAGE,Moderate,Oneida
984700,Finger Lake,87,30 FEET,,45.96536530,-89.18243510,No,No,No,"Panfish, Largemouth Bass and Walleye",SEEPAGE,Moderate,Vilas
2965500,Finger Lake,46,25 FEET,,46.51140090,-91.26886880,No,No,Yes,"Panfish, Largemouth Bass and Walleye",SEEPAGE,,Bayfield
420600,Finnegan Lake,25,38 FEET,,44.87650020,-88.31998570,Yes,No,No,"Panfish, Largemouth Bass and Walleye",SEEPAGE,,Oconto
2298500,First Black Lake,23,19 FEET,,46.15947940,-90.18480630,No,No,No,"Musky, Panfish, Largemouth Bass, Northern Pike and Walleye",DRAINAGE,Low,Iron
985000,Fish Lake,164,37 FEET,,44.12273880,-89.48551870,Yes,No,Yes,"Panfish, Largemouth Bass, Northern Pike and Walleye",SEEPAGE,Moderate,Waushara
1570600,Fish Lake,71,7 FEET,,45.62367810,-89.25580320,No,No,No,"Musky, Panfish, Largemouth Bass, Smallmouth Bass, Northern Pike and Walleye",DRAINAGE,,Oneida
2464500,Fish Lake,330,29 FEET,10 FEET,45.97250930,-92.11723610,Yes,No,No,"Panfish, Largemouth Bass, Northern Pike and Walleye",SEEPAGE,,Burnett
2307300,Fisher Lake,441,21 FEET,9 FEET,46.24292050,-89.96341730,Yes,No,Yes,"Musky, Panfish, Largemouth Bass, Smallmouth Bass, Northern Pike and Walleye",DRAINAGE,Low,Iron
2343200,Fishtrap Lake,339,34 FEET,,46.14077770,-89.58183030,No,No,Yes,"Musky, Panfish, Largemouth Bass, Smallmouth Bass, Northern Pike and Walleye",DRAINAGE,Moderate,Vilas
2401100,Fishtrap Lake,263,11 FEET,7 FEET,45.95166790,-90.95207010,Yes,No,Yes,"Musky, Panfish, Largemouth Bass, Northern Pike and Walleye",DRAINAGE,Moderate,Sawyer
2320500,Flambeau Lake,1166,78 FEET,28 FEET,45.96460130,-89.92374030,Yes,No,No,"Musky, Panfish, Largemouth Bass, Smallmouth Bass, Northern Pike and Walleye",DRAINAGE,,Vilas
2902800,Flynn Lake,30,9 FEET,5 FEET,46.49174710,-91.349836,No,No,Yes,"Musky, Panfish, Largemouth Bass, Northern Pike and Walleye",DRAINAGE,,Bayfield
8900,Forest Lake,51,32 FEET,11 FEET,43.60761740,-88.16719210,Yes,No,Yes,"Panfish, Largemouth Bass, Northern Pike and Walleye",SEEPAGE,Moderate,Fond du Lac
2762200,Forest Lake,468,60 FEET,29 FEET,46.14889990,-89.37623930,Yes,No,No,"Panfish, Largemouth Bass, Smallmouth Bass, Northern Pike and Walleye",SEEPAGE,Very Clear,Vilas
1593800,Found Lake,336,21 FEET,11 FEET,45.95051190,-89.45319660,Yes,No,Yes,"Musky, Panfish, Largemouth Bass, Northern Pike and Walleye",DRAINAGE,Low,Vilas
1610800,Fourmile Lake,210,29 FEET,12 FEET,45.84694520,-89.08132630,No,No,Yes,"Musky, Panfish, Largemouth Bass, Smallmouth Bass, Northern Pike and Walleye",DRAINAGE,Low,Oneida
1572000,Fourth Lake,253,14 FEET,,45.63677070,-89.27433940,No,No,No,"Musky, Panfish, Largemouth Bass, Smallmouth Bass, Northern Pike and Walleye",DRAINAGE,Low,Oneida
849400,Fowler Lake,97,50 FEET,,43.11397040,-88.49498020,Yes,No,Yes,"Panfish, Largemouth Bass, Northern Pike and Walleye",DRAINAGE,Very Clear,Waukesha
835800,Fox Lake,2713,19 FEET,7 FEET,43.58484510,-88.92356890,Yes,No,Yes,"Musky, Panfish, Largemouth Bass, Northern Pike and Walleye",DRAINAGE,Low,Dodge
985900,Frank Lake,147,38 FEET,,46.03367510,-89.55385420,Yes,No,Yes,"Panfish, Largemouth Bass, Northern Pike and Walleye",SEEPAGE,Moderate,Vilas
692900,Franklin Lake,839,46 FEET,19 FEET,45.93553210,-89.001399,Yes,No,Yes,"Panfish, Largemouth Bass, Smallmouth Bass, Northern Pike and Walleye",DRAINAGE,Very Clear,Forest
1849600,French Lake,89,16 FEET,10 FEET,46.03340180,-90.15265210,No,No,No,"Musky, Panfish, Largemouth Bass and Walleye",SEEPAGE,,Iron
1352000,Friendship Lake,125,15 FEET,6 FEET,43.98199270,-89.79922760,Yes,Yes,No,"Panfish, Largemouth Bass, Northern Pike and Walleye",DRAINAGE,Moderate,Adams
853200,Friess Lake,121,48 FEET,27 FEET,43.24448120,-88.27640130,No,No,Yes,"Panfish, Largemouth Bass, Northern Pike and Walleye",DRAINAGE,Low,Washington
585700,Frog Lake,28,21 FEET,,45.85779250,-88.12752680,Yes,No,Yes,"Panfish, Largemouth Bass, Northern Pike and Walleye",SEEPAGE,,Florence
986600,Garth Lake,116,22 FEET,,45.76111880,-89.75133320,No,No,No,"Panfish, Largemouth Bass, Northern Pike and Walleye",SEEPAGE,,Oneida
758300,Geneva Lake,5401,135 FEET,61 FEET,42.565068,-88.50358210,Yes,Yes,Yes,"Panfish, Largemouth Bass, Smallmouth Bass, Northern Pike, Trout and Walleye",SPRING,Very Clear,Walworth
265400,George Lake,5,30 FEET,10 FEET,44.34089320,-89.14443420,No,No,No,"Musky, Panfish, Largemouth Bass, Northern Pike, Trout and Walleye",SPRING,,Waupaca
1569600,George Lake,443,26 FEET,,45.60897580,-89.33277980,Yes,No,No,"Musky, Panfish, Largemouth Bass, Smallmouth Bass, Northern Pike and Walleye",DRAINAGE,Low,Oneida
2423000,Ghost Lake,384,12 FEET,5 FEET,46.09177310,-91.05434110,Yes,No,No,"Musky, Panfish, Largemouth Bass and Walleye",DRAINAGE,Moderate,Sawyer
1850700,Gibbs Lake,8,44 FEET,,45.289464,-90.32126640,No,No,No,"Panfish, Largemouth Bass and Walleye",SEEPAGE,,Taylor
186400,Gilbert Lake,139,65 FEET,,44.21266860,-89.16929880,Yes,No,Yes,"Panfish, Largemouth Bass, Smallmouth Bass, Northern Pike and Walleye",SEEPAGE,Very Clear,Waushara
2942300,Gile Flowage,3138,25 FEET,,46.395531,-90.230584,Yes,No,No,"Musky, Panfish, Smallmouth Bass, Northern Pike and Walleye",DRAINAGE,Low,Iron
486400,Gillett Lake,33,26 FEET,,45.250093,-88.54248780,No,No,Yes,"Panfish, Largemouth Bass, Northern Pike and Walleye",DRAINAGE,Moderate,Oconto
2695800,Gilmore Lake,371,36 FEET,16 FEET,46.12267780,-91.88778870,Yes,No,No,"Panfish, Largemouth Bass, Northern Pike and Walleye",DRAINAGE,Moderate,Washburn
1589300,Gilmore Lake,314,24 FEET,,45.85574750,-89.55931150,Yes,No,Yes,"Musky, Panfish, Largemouth Bass, Northern Pike and Walleye",DRAINAGE,Low,Oneida
722900,Glen Lake,91,18 FEET,,42.95396940,-91.14341670,No,No,No,"Panfish, Largemouth Bass, Smallmouth Bass, Northern Pike, Walleye and Catfish",DRAINED,,Grant
775900,Golden Lake,252,44 FEET,,43.03496460,-88.53667410,Yes,No,No,"Panfish, Largemouth Bass, Northern Pike and Walleye",SPRING,Moderate,"Jefferson, Waukesha"
2353500,Goose Lake,20,57 FEET,,45.306288,-91.35272180,No,No,No,"Musky, Panfish, Largemouth Bass, Northern Pike and Walleye",SEEPAGE,,Rusk
2406500,Gordon Lake,132,28 FEET,12 FEET,46.16628450,-90.61759420,Yes,No,No,"Musky, Panfish, Largemouth Bass, Northern Pike and Walleye",DRAINAGE,Moderate,Ashland
26200,Grafton Millpond,25,8 FEET,,43.31828890,-87.94769720,No,No,No,"Panfish, Largemouth Bass, Smallmouth Bass, Northern Pike and Walleye",DRAINAGE,,Ozaukee
161100,Grand Lake (Millpond),242,8 FEET,3 FEET,43.68938070,-89.12186220,Yes,No,No,"Panfish, Largemouth Bass, Northern Pike and Walleye",DRAINAGE,Low,Green Lake
2314100,Grand Portage Lake,148,33 FEET,15 FEET,46.17311530,-90.04941740,Yes,No,Yes,"Musky, Panfish, Largemouth Bass, Smallmouth Bass, Northern Pike and Walleye",DRAINAGE,,Iron
610700,Grand Rapids Flowage ,307,21 FEET,6 FEET,45.371190,-87.66106370,Yes,No,Yes,"Panfish, Largemouth Bass, Smallmouth Bass, Northern Pike and Walleye",DRAINAGE,,Marinette
159900,Grand River Marsh*,1446,7 FEET,,43.72076720,-89.22806570,Yes,No,Yes,"Panfish, Largemouth Bass, Northern Pike and Walleye",DRAINAGE,,"Green Lake, Marquette"
1502400,Grandfather Flowage,184,32 FEET,,45.31855540,-89.78366930,Yes,No,No,"Musky, Panfish, Largemouth Bass, Smallmouth Bass, Northern Pike and Walleye",DRAINAGE,Low,Lincoln
1503000,Grandmother Flowage,208,22 FEET,,45.38012590,-89.72252890,Yes,No,No,"Musky, Panfish, Largemouth Bass, Smallmouth Bass, Northern Pike and Walleye",DRAINAGE,Low,Lincoln
2100800,Granite Lake,155,34 FEET,18 FEET,45.57994770,-92.00685310,Yes,No,Yes,"Panfish, Largemouth Bass, Northern Pike and Walleye",DRAINAGE,Moderate,Barron
2312500,Grant Lake,106,10 FEET,,46.11176970,-90.07585610,No,No,Yes,"Musky, Panfish, Largemouth Bass, Northern Pike and Walleye",DRAINAGE,,Iron
299200,Grass Lake,90,52 FEET,14 FEET,44.69022710,-88.66851180,Yes,No,No,"Musky, Panfish, Largemouth Bass, Smallmouth Bass, Northern Pike and Walleye",DRAINAGE,Moderate,Shawano
2238100,Grassy Lake,72,7 FEET,4 FEET,45.70040720,-90.50382970,Yes,No,No,"Musky, Panfish, Largemouth Bass, Smallmouth Bass, Northern Pike and Walleye",DRAINAGE,,Price
2391600,Graveyard Springs,4,18 FEET,,45.95789720,-91.38558060,No,No,No,"Panfish, Largemouth Bass, Northern Pike, Trout and Walleye",SPRING,,Sawyer
1445500,Greater Bass Lake,244,25 FEET,11 FEET,45.35804760,-89.19393610,Yes,No,No,"Musky, Panfish, Largemouth Bass, Smallmouth Bass, Northern Pike and Walleye",DRAINAGE,Moderate,Langlade
755800,Green Lake,283,57 FEET,,42.77875290,-88.570377,Yes,No,No,"Panfish, Largemouth Bass, Northern Pike and Walleye",SPRING,Very Clear,Walworth
146100,Green Lake,7920,236 FEET,104 FEET,43.81022720,-89.00180570,Yes,Yes,Yes,"Panfish, Largemouth Bass, Smallmouth Bass, Northern Pike, Trout, Walleye and Catfish",DRAINAGE,Moderate,Green Lake
28100,Green Lake,70,37 FEET,17 FEET,43.45981770,-88.101148,Yes,No,No,"Panfish, Largemouth Bass, Northern Pike and Walleye",SEEPAGE,Moderate,Washington
2385100,Grimh Flowage,62,16 FEET,4 FEET,45.767013,-91.22641460,Yes,No,No,"Musky, Panfish, Largemouth Bass, Smallmouth Bass, Northern Pike and Walleye",DRAINAGE,,Sawyer
2391200,Grindstone Lake,3176,60 FEET,30 FEET,45.93528820,-91.41535320,Yes,No,Yes,"Musky, Panfish, Largemouth Bass, Smallmouth Bass, Northern Pike and Walleye",DRAINAGE,,Sawyer
395900,Ground Hemlock Lake,84,44 FEET,18 FEET,45.47456780,-88.86279430,No,No,No,"Panfish, Largemouth Bass, Smallmouth Bass, Northern Pike and Walleye",SPRING,Moderate,Forest
2671100,Gull Lake,178,19 FEET,4 FEET,45.98386780,-92.30308630,Yes,No,No,"Panfish, Largemouth Bass, Northern Pike and Walleye",DRAINAGE,,Burnett
1539700,Gunlock Lake,264,26 FEET,12 FEET,45.91291020,-89.82003850,Yes,No,No,"Musky, Panfish, Largemouth Bass, Smallmouth Bass, Northern Pike and Walleye",SPRING,Low,Vilas
2448000,Gurno Lake,76,27 FEET,13 FEET,45.91128940,-91.37074510,No,No,No,"Musky, Panfish, Largemouth Bass, Northern Pike and Walleye",SEEPAGE,,Sawyer
2621100,Half Moon Lake,550,60 FEET,25 FEET,45.49460680,-92.42052760,Yes,No,No,"Panfish, Largemouth Bass, Northern Pike and Walleye",DRAINAGE,,Polk
2200000,Half Moon Lake,8,22 FEET,,45.31459170,-90.323471,No,No,No,"Panfish, Largemouth Bass and Walleye",DRAINAGE,,Taylor
679300,Halsey Lake,506,10 FEET,,45.84803470,-88.63281230,Yes,No,Yes,"Panfish, Largemouth Bass, Northern Pike and Walleye",DRAINAGE,Moderate,Florence
1852300,Ham Lake,96,28 FEET,14 FEET,45.83622640,-91.46252570,No,No,No,"Panfish, Largemouth Bass and Walleye",SEEPAGE,,Sawyer
2467700,Ham Lake,313,29 FEET,9 FEET,45.96615350,-92.26839970,No,No,No,"Panfish, Largemouth Bass, Northern Pike and Walleye",SEEPAGE,,Burnett
2467900,Hammil Lake,77,47 FEET,20 FEET,46.26179690,-91.30336620,No,No,Yes,"Panfish, Largemouth Bass, Smallmouth Bass and Walleye",SEEPAGE,Very Clear,Bayfield
1517900,Hancock Lake,259,22 FEET,,45.618611,-89.63070090,Yes,No,Yes,"Musky, Panfish, Largemouth Bass, Northern Pike and Walleye",DRAINAGE,Low,Oneida
586200,Harmony Lake,44,17 FEET,,45.90174270,-88.99970490,No,No,Yes,"Panfish, Largemouth Bass and Walleye",SEEPAGE,Moderate,Forest
84600,Harpt Lake,32,54 FEET,20 FEET,44.29593080,-87.73401710,Yes,No,No,"Panfish, Largemouth Bass, Northern Pike and Walleye",SEEPAGE,Low,Manitowoc
2958500,Harris Lake,534,57 FEET,24 FEET,46.26069380,-89.83411210,Yes,No,No,"Musky, Panfish, Largemouth Bass, Smallmouth Bass, Northern Pike and Walleye",DRAINAGE,Moderate,Vilas
2903200,Hart Lake,257,54 FEET,25 FEET,46.51853130,-91.36189260,No,No,No,"Musky, Panfish, Largemouth Bass, Smallmouth Bass, Northern Pike and Walleye",SEEPAGE,,Bayfield
1589100,Hasbrook Lake,307,50 FEET,,45.83749050,-89.58247440,Yes,No,Yes,"Musky, Panfish, Largemouth Bass, Smallmouth Bass and Walleye",SEEPAGE,Very Clear,Oneida
1538000,Haskell Lake,89,50 FEET,,45.90783750,-89.91723980,No,No,No,"Musky, Panfish, Largemouth Bass, Northern Pike and Walleye",DRAINAGE,,Vilas
1853200,Haugen Lake,35,6 FEET,4 FEET,45.640797,-91.765710,No,No,No,"Panfish, Largemouth Bass, Northern Pike and Walleye",SEEPAGE,,Washburn
2725500,Hayward Lake,191,17 FEET,5 FEET,46.00812410,-91.46978650,Yes,No,Yes,"Musky, Panfish, Largemouth Bass, Smallmouth Bass, Northern Pike, Trout and Walleye",DRAINAGE,,Sawyer
2763100,Heart Lake,19,19 FEET,,46.48670290,-91.28349230,No,No,Yes,Panfish and Walleye,SEEPAGE,,Bayfield
2964400,Helen Lake,102,19 FEET,,46.180052,-89.42454370,No,No,No,"Musky, Panfish, Largemouth Bass, Northern Pike and Walleye",DRAINAGE,Low,Vilas
1242400,Helen Lake,16,28 FEET,,43.16481130,-90.03081890,Yes,No,Yes,"Panfish, Largemouth Bass, Northern Pike and Walleye",SEEPAGE,,Iowa
2109800,Hemlock Lake,364,21 FEET,8 FEET,45.56804140,-91.56478540,Yes,No,No,"Panfish, Largemouth Bass, Smallmouth Bass, Northern Pike and Walleye",DRAINAGE,Low,Barron
989200,Hemlock Lake,38,25 FEET,14 FEET,45.87658020,-89.65107190,Yes,No,Yes,"Panfish, Largemouth Bass and Walleye",SEEPAGE,Very Clear,Oneida
2115900,Heron Lake,30,25 FEET,13 FEET,45.74489170,-91.48867660,No,No,No,"Panfish, Largemouth Bass, Northern Pike and Walleye",DRAINAGE,,Sawyer
2380100,Hess Lake,18,24 FEET,,45.71352550,-91.14516570,No,No,No,"Panfish, Largemouth Bass, Northern Pike and Walleye",SEEPAGE,,Sawyer
2328400,Hiawatha Lake,36,58 FEET,,46.18899530,-89.82971620,No,No,Yes,"Panfish, Largemouth Bass and Walleye",DRAINED,Very Clear,Vilas
540600,High Falls Reservoir,1471,54 FEET,12 FEET,45.30427620,-88.19652610,Yes,No,Yes,"Musky, Panfish, Largemouth Bass, Smallmouth Bass, Northern Pike and Walleye",DRAINAGE,Moderate,Marinette
2344000,High Lake,741,36 FEET,,46.15590220,-89.54865270,Yes,No,Yes,"Musky, Panfish, Largemouth Bass, Smallmouth Bass, Northern Pike and Walleye",DRAINAGE,Moderate,Vilas
501200,Hilbert Lake,278,32 FEET,9 FEET,45.708842,-88.41582250,Yes,No,Yes,"Panfish, Largemouth Bass, Smallmouth Bass, Northern Pike and Walleye",SEEPAGE,Moderate,"Marinette, Forest"
182100,Hills Lake,125,22 FEET,12 FEET,44.15357080,-89.16374150,Yes,No,No,"Panfish, Largemouth Bass, Northern Pike and Walleye",SEEPAGE,Moderate,Waushara
105200,Hills Lake,78,20 FEET,,44.04568630,-89.21047530,Yes,No,No,"Panfish, Largemouth Bass, Northern Pike, Walleye and Catfish",SEEPAGE,Moderate,Waushara
1568900,Hixon Lake,58,28 FEET,,45.58146580,-89.40815910,No,No,No,"Panfish, Largemouth Bass and Walleye",SEEPAGE,Moderate,Oneida
990700,Hodstradt Lake,119,36 FEET,21 FEET,45.80731140,-89.56353060,Yes,No,Yes,"Panfish, Largemouth Bass, Smallmouth Bass and Walleye",SEEPAGE,Very Clear,Oneida
2184900,Holcombe Flowage,2881,62 FEET,12 FEET,45.27734830,-91.10106520,Yes,Yes,Yes,"Musky, Panfish, Largemouth Bass, Smallmouth Bass, Northern Pike, Walleye, Sturgeon and Catfish",DRAINAGE,Low,"Rusk, Chippewa"
2763900,Hoodoo Lake,33,13 FEET,,46.52652990,-91.59263130,No,No,No,"Panfish, Largemouth Bass and Walleye",SEEPAGE,,Douglas
467100,Horn Lake,131,11 FEET,6 FEET,45.32478480,-88.63325240,Yes,No,No,"Panfish, Largemouth Bass, Northern Pike and Walleye",SPRING,Moderate,Oconto
2953100,Horsehead Lake,250,24 FEET,13 FEET,46.23328710,-89.71536740,Yes,No,No,"Musky, Panfish, Largemouth Bass, Smallmouth Bass, Northern Pike and Walleye",DRAINAGE,Moderate,Vilas
271900,Horseshoe Bayou,14,8 FEET,,44.353455,-88.821144,No,No,No,"Panfish, Largemouth Bass, Smallmouth Bass, Northern Pike and Walleye",DRAINAGE,,Waupaca
2764100,Horseshoe Lake,4,42 FEET,,46.46528340,-91.67482120,No,No,No,"Panfish, Largemouth Bass and Walleye",SEEPAGE,,Douglas
2630100,Horseshoe Lake,398,57 FEET,20 FEET,45.44293480,-92.15880990,Yes,No,No,"Largemouth Bass, Northern Pike and Walleye",SEEPAGE,Low,"Polk, Barron"
2469800,Horseshoe Lake,113,19 FEET,10 FEET,45.62611950,-92.08710820,Yes,No,No,"Panfish, Largemouth Bass, Northern Pike and Walleye",SEEPAGE,,Barron
2470000,Horseshoe Lake,177,21 FEET,7 FEET,46.08654050,-91.91966290,Yes,No,No,"Panfish, Largemouth Bass, Northern Pike and Walleye",SEEPAGE,Very Clear,Washburn
2470100,Horseshoe Lake,34,8 FEET,,45.54966130,-92.63758730,No,No,No,"Panfish, Largemouth Bass and Walleye",SEEPAGE,,Polk
1854300,Horseshoe Lake,27,28 FEET,,45.21747720,-91.361698,Yes,No,Yes,"Panfish, Largemouth Bass, Northern Pike and Walleye",SEEPAGE,,Chippewa
2944800,Horseshoe Lake,22,18 FEET,,46.265450,-90.25510530,No,No,No,"Panfish, Largemouth Bass, Northern Pike and Walleye",SEEPAGE,Low,Iron
691800,Howell Lake,171,16 FEET,12 FEET,45.94694360,-88.93380690,No,No,Yes,"Panfish, Largemouth Bass, Northern Pike and Walleye",SPRING,,Forest
991700,Hunter Lake,175,40 FEET,17 FEET,46.003537,-89.32209860,Yes,No,No,"Panfish, Largemouth Bass, Smallmouth Bass and Walleye",SEEPAGE,Moderate,Vilas
2400600,Hunter Lake,134,17 FEET,5 FEET,45.92300140,-90.99721570,No,No,No,"Musky, Panfish, Largemouth Bass, Smallmouth Bass, Northern Pike and Walleye",DRAINAGE,Low,Sawyer
2321800,Ike Walton Lake,1417,61 FEET,10 FEET,46.03593440,-89.80623710,Yes,No,No,"Musky, Panfish, Largemouth Bass, Smallmouth Bass and Walleye",SEEPAGE,,Vilas
2448700,Indian Lake,76,9 FEET,6 FEET,45.93085890,-91.33640890,Yes,No,No,"Panfish, Largemouth Bass and Walleye",SEEPAGE,,Sawyer
1598900,Indian Lake,354,26 FEET,,45.81402280,-89.30161790,Yes,No,No,"Musky, Panfish, Largemouth Bass, Smallmouth Bass, Northern Pike and Walleye",SPRING,Moderate,Oneida
2634400,Indianhead Flowage,413,57 FEET,11 FEET,45.45736350,-92.66258110,Yes,No,No,"Panfish, Largemouth Bass, Smallmouth Bass, Northern Pike and Walleye",DRAINAGE,,Polk
1537400,Inkpot Lake,15,12 FEET,,45.87729340,-89.87299370,No,No,No,"Panfish, Largemouth Bass, Northern Pike and Walleye",DRAINAGE,,Oneida
2877000,Iron Lake,247,20 FEET,6 FEET,46.53368360,-91.44218750,No,No,No,"Panfish, Largemouth Bass, Northern Pike and Walleye",SEEPAGE,,Bayfield
2340900,Irving Lake,419,8 FEET,,46.06131630,-89.47367380,Yes,No,Yes,"Musky, Panfish, Largemouth Bass and Walleye",DRAINAGE,Low,Vilas
2945500,Island Lake,344,17 FEET,9 FEET,46.26427970,-90.30285170,Yes,No,No,"Musky, Panfish, Smallmouth Bass, Northern Pike and Walleye",DRAINAGE,Moderate,Iron
1610500,Island Lake,305,26 FEET,11 FEET,45.82896750,-89.13324010,No,No,No,"Musky, Panfish, Largemouth Bass, Smallmouth Bass, Northern Pike and Walleye",DRAINAGE,Low,Oneida
2381800,Island Lake,69,31 FEET,13 FEET,45.89193260,-90.95062950,Yes,No,No,"Musky, Panfish, Largemouth Bass and Walleye",DRAINAGE,,Sawyer
2350200,Island Lake,543,54 FEET,22 FEET,45.31958560,-91.384081,Yes,No,Yes,"Musky, Panfish, Largemouth Bass, Smallmouth Bass, Northern Pike and Walleye",DRAINAGE,Moderate,Rusk
2470900,Island Lake,45,17 FEET,8 FEET,46.353593,-91.76792120,No,No,No,"Panfish, Largemouth Bass, Northern Pike and Walleye",SEEPAGE,,Douglas
2334400,Island Lake,865,35 FEET,13 FEET,46.11667180,-89.79204460,Yes,No,Yes,"Musky, Panfish, Largemouth Bass, Smallmouth Bass, Northern Pike and Walleye",DRAINAGE,Moderate,Vilas
2470600,Island Lake,252,44 FEET,14 FEET,45.95820770,-91.94301410,Yes,No,No,"Panfish, Largemouth Bass, Northern Pike and Walleye",SEEPAGE,,Washburn
2764700,Jackman Lake,11,22 FEET,,46.595033,-91.38244680,Yes,No,No,Panfish and Walleye,SEEPAGE,,Bayfield
2734200,Jackson Lake,149,13 FEET,8 FEET,46.249257,-91.11614010,No,No,Yes,"Musky, Panfish, Largemouth Bass, Northern Pike and Walleye",DRAINAGE,,Bayfield
1855900,Jag Lake,162,27 FEET,,46.08455770,-89.722320,Yes,Yes,Yes,"Musky, Panfish, Largemouth Bass, Smallmouth Bass and Walleye",SEEPAGE,,Vilas
1468900,James Lake,45,37 FEET,16 FEET,45.35574710,-90.22681410,No,No,No,"Panfish, Largemouth Bass and Walleye",SEEPAGE,,Taylor
2414300,James Lake,15,48 FEET,,45.94156140,-91.14413690,No,No,No,"Musky, Panfish, Largemouth Bass, Smallmouth Bass and Walleye",SEEPAGE,Moderate,Sawyer
1574300,Jennie Webber Lake,237,8 FEET,5 FEET,45.73989160,-89.331060,Yes,No,No,"Panfish, Largemouth Bass, Northern Pike and Walleye",DRAINAGE,Low,Oneida
1856400,Jenny Lake,63,28 FEET,,46.188115,-89.68146970,No,No,No,"Panfish, Largemouth Bass and Walleye",SEEPAGE,,Vilas
1856500,Jerms Lake,69,38 FEET,22 FEET,45.91333150,-89.87512430,No,No,No,"Panfish, Largemouth Bass, Smallmouth Bass and Walleye",SEEPAGE,Very Clear,Vilas
1516000,Jersey City Flowage,423,20 FEET,4 FEET,45.50381030,-89.73892060,Yes,No,No,"Musky, Panfish, Largemouth Bass, Smallmouth Bass, Northern Pike and Walleye",DRAINAGE,Low,Lincoln
533300,Johnson Falls Flowage 647,145,37 FEET,9 FEET,45.267610,-88.179680,Yes,No,No,"Panfish, Smallmouth Bass, Northern Pike and Walleye",DRAINAGE,Moderate,Marinette
188900,Johnson Lake,13,27 FEET,,44.44970830,-89.20769350,No,No,No,"Panfish, Largemouth Bass, Northern Pike and Walleye",SEEPAGE,,Waupaca
1541100,Johnson Lake,85,42 FEET,,45.89974180,-89.72062420,Yes,No,No,"Musky, Panfish, Largemouth Bass, Northern Pike and Walleye",DRAINAGE,,"Oneida, Vilas"
104000,Jordan Lake,233,92 FEET,,43.743150,-89.647180,Yes,No,Yes,"Panfish, Largemouth Bass, Northern Pike, Trout and Walleye",SEEPAGE,Very Clear,Adams
1614300,Julia Lake,404,45 FEET,18 FEET,45.79558220,-89.04318240,Yes,No,Yes,"Musky, Panfish, Largemouth Bass, Smallmouth Bass, Northern Pike, Trout and Walleye",DRAINAGE,Moderate,"Oneida, Forest"
377900,Jungle Lake,180,14 FEET,7 FEET,45.45488510,-88.83332370,Yes,No,Yes,"Panfish, Largemouth Bass, Northern Pike and Walleye",DRAINAGE,Moderate,Forest
2891700,Kakagon Slough,71,26 FEET,7 FEET,46.66148060,-90.74560830,No,No,No,"Panfish, Largemouth Bass, Smallmouth Bass, Northern Pike and Walleye",DRAINAGE,Low,Ashland
98600,Kangaroo Lake,1156,12 FEET,6 FEET,45.03488630,-87.15853670,Yes,No,Yes,"Panfish, Largemouth Bass, Smallmouth Bass, Northern Pike and Walleye",DRAINAGE,Moderate,Door
1598300,Kathan Lake,214,15 FEET,,45.87163250,-89.31844840,No,No,Yes,"Musky, Panfish, Largemouth Bass, Northern Pike and Walleye",DRAINAGE,Moderate,Oneida
1543300,Katherine Lake,524,30 FEET,16 FEET,45.80474010,-89.71193440,Yes,No,Yes,"Musky, Panfish, Largemouth Bass, Smallmouth Bass and Walleye",SEEPAGE,,Oneida
2166100,Kathryn Lake,63,58 FEET,15 FEET,45.20215770,-90.61997580,Yes,No,Yes,"Panfish, Largemouth Bass, Northern Pike and Walleye",DRAINED,Low,Taylor
2957000,Katinka Lake,170,60 FEET,,46.20538270,-89.79261330,No,No,No,"Musky, Panfish, Largemouth Bass, Smallmouth Bass and Walleye",DRAINAGE,Very Clear,Vilas
1542300,Kawaguesaga Lake,700,44 FEET,18 FEET,45.867517,-89.73828280,Yes,No,Yes,"Musky, Panfish, Largemouth Bass, Smallmouth Bass, Northern Pike and Walleye",DRAINAGE,Moderate,Oneida
2472000,Kelly Lake,56,17 FEET,12 FEET,46.35820290,-91.46053590,No,No,No,"Panfish, Largemouth Bass and Walleye",SEEPAGE,,Bayfield
446600,Kelly Lake,367,41 FEET,14 FEET,45.02162250,-88.22678960,Yes,No,Yes,"Panfish, Largemouth Bass, Northern Pike and Walleye",DRAINAGE,Very Clear,Oconto
993700,Kendal Lake,32,17 FEET,,43.196160,-90.387040,No,No,No,"Panfish, Largemouth Bass, Northern Pike, Walleye and Catfish",SEEPAGE,,Iowa
716800,Kentuck Lake,1001,40 FEET,13 FEET,45.98520740,-88.99980380,Yes,No,Yes,"Musky, Panfish, Largemouth Bass, Smallmouth Bass and Walleye",DRAINAGE,Low,"Vilas, Forest"
1629800,Kenu Lake,68,13 FEET,,46.14308680,-89.31631010,No,No,No,"Musky, Panfish, Largemouth Bass, Northern Pike and Walleye",DRAINAGE,Low,Vilas
2900500,Kern Lake,79,21 FEET,11 FEET,46.43068950,-91.23870530,No,No,No,"Panfish, Largemouth Bass and Walleye",SEEPAGE,,Bayfield
43900,Kettle Moraine Lake,209,30 FEET,6 FEET,43.65325630,-88.21031410,No,No,No,"Panfish, Largemouth Bass, Northern Pike and Walleye",SEEPAGE,Moderate,Fond du Lac
672900,Keyes Lake,195,74 FEET,,45.89902610,-88.30611980,Yes,No,Yes,"Panfish, Largemouth Bass, Smallmouth Bass, Northern Pike and Walleye",SPRING,Very Clear,Florence
1299600,Kilbourn Flowage,1868,35 FEET,,43.67186670,-89.80072220,No,No,No,"Panfish, Largemouth Bass, Smallmouth Bass, Northern Pike, Walleye and Catfish",DRAINAGE,,"Adams, Juneau"
1631700,Kildare Lake,54,35 FEET,,46.11536410,-89.16097770,No,No,Yes,"Musky, Panfish, Largemouth Bass and Walleye",,Moderate,Vilas
650200,Kingsford Flowage Wi-Mi (491),223,32 FEET,13 FEET,45.80967570,-88.13001750,No,No,No,"Musky, Panfish, Largemouth Bass, Smallmouth Bass, Northern Pike and Walleye",DRAINAGE,,Florence
262700,Knight Lake,15,42 FEET,18 FEET,44.328640,-89.185875,No,No,Yes,"Musky, Panfish, Largemouth Bass, Northern Pike and Walleye",DRAINAGE,,Waupaca
2114300,Knuteson Lake,64,17 FEET,10 FEET,45.70217510,-91.46442040,Yes,No,No,"Panfish, Largemouth Bass, Northern Pike and Walleye",DRAINAGE,,Sawyer
189500,Koonz Lake,20,40 FEET,,44.91272840,-88.75534030,Yes,No,No,"Panfish, Largemouth Bass, Northern Pike and Walleye",SEEPAGE,Moderate,Shawano
189600,Kusel Lake,74,29 FEET,,44.17084820,-89.16476990,Yes,No,No,"Panfish, Largemouth Bass, Northern Pike and Walleye",SEEPAGE,Moderate,Waushara
2390800,Lac Courte Oreilles,5139,90 FEET,34 FEET,45.895164,-91.43456340,Yes,No,No,"Musky, Panfish, Largemouth Bass, Smallmouth Bass, Northern Pike and Walleye",DRAINAGE,Very Clear,Sawyer
848800,Lac La Belle,1154,45 FEET,11 FEET,43.12986320,-88.51854090,Yes,No,Yes,"Panfish, Largemouth Bass, Smallmouth Bass, Northern Pike and Walleye",DRAINAGE,Moderate,Waukesha
2236800,Lac Sault Dore,601,21 FEET,6 FEET,45.70332650,-90.56227620,Yes,No,No,"Musky, Panfish, Largemouth Bass, Smallmouth Bass, Northern Pike and Walleye",DRAINAGE,Low,Price
1631900,Lac Vieux Desert,4017,38 FEET,,46.13595650,-89.114974,Yes,No,Yes,"Musky, Panfish, Largemouth Bass, Smallmouth Bass, Northern Pike and Walleye",DRAINAGE,Moderate,Vilas
2228700,Ladysmith Flowage,268,19 FEET,8 FEET,45.48408340,-91.07603180,Yes,No,No,"Musky, Panfish, Largemouth Bass, Smallmouth Bass, Northern Pike, Walleye, Sturgeon and Catfish",DRAINAGE,Moderate,Rusk
1831700,Lake Adelaide,57,69 FEET,,46.24741560,-89.89967160,Yes,No,Yes,"Musky, Panfish, Largemouth Bass, Smallmouth Bass, Northern Pike and Walleye",DRAINAGE,,Vilas
1555900,Lake Alice,1438,32 FEET,,45.48304360,-89.63847650,Yes,No,No,"Musky, Panfish, Largemouth Bass, Smallmouth Bass, Northern Pike and Walleye",DRAINAGE,Low,Lincoln
1377700,Lake Arrowhead,295,30 FEET,,44.20969630,-89.841425,Yes,Yes,No,"Panfish, Largemouth Bass, Northern Pike and Walleye",DRAINAGE,Low,Adams
886000,Lake Belle View,44,7 FEET,,42.864525,-89.537250,Yes,No,No,"Panfish, Largemouth Bass, Smallmouth Bass, Northern Pike, Walleye and Catfish",DRAINAGE,,Dane
139900,Lake Butte des Morts,8581,9 FEET,,44.07015430,-88.638706,Yes,No,No,"Musky, Panfish, Largemouth Bass, Smallmouth Bass, Northern Pike, Walleye, Sturgeon and Catfish",DRAINAGE,Low,Winnebago
2113300,Lake Chetac,2400,26 FEET,14 FEET,45.71068570,-91.49757990,Yes,No,No,"Panfish, Largemouth Bass, Smallmouth Bass, Northern Pike and Walleye",DRAINAGE,Very Low,Sawyer
2094000,Lake Chetek,923,22 FEET,13 FEET,45.31595580,-91.62910360,Yes,No,No,"Panfish, Largemouth Bass, Smallmouth Bass, Northern Pike and Walleye",DRAINAGE,,Barron
2399700,Lake Chippewa,14593,92 FEET,15 FEET,45.93372770,-91.18321470,Yes,No,Yes,"Musky, Panfish, Largemouth Bass, Smallmouth Bass, Northern Pike, Walleye, Sturgeon and Catfish",DRAINAGE,Low,Sawyer
1592000,Lake Content,239,42 FEET,,45.92097580,-89.51125050,No,No,No,"Musky, Panfish, Largemouth Bass, Northern Pike and Walleye",SEEPAGE,Moderate,Vilas
1580500,Lake Creek,188,12 FEET,,45.67011710,-89.40527470,Yes,No,No,"Musky, Panfish, Largemouth Bass, Smallmouth Bass, Northern Pike and Walleye",DRAINAGE,Moderate,Oneida
761300,Lake Denoon,167,55 FEET,18 FEET,42.84657240,-88.16887370,Yes,No,Yes,"Panfish, Largemouth Bass, Northern Pike and Walleye",SEEPAGE,Low,"Racine, Waukesha"
1412200,Lake Du Bay,4649,30 FEET,,44.696648,-89.687040,Yes,Yes,Yes,"Musky, Panfish, Largemouth Bass, Smallmouth Bass, Northern Pike and Walleye",DRAINAGE,Low,"Portage, Marathon"
32500,Lake Ellen,112,42 FEET,16 FEET,43.64635990,-88.01502020,Yes,No,Yes,"Panfish, Largemouth Bass, Northern Pike and Walleye",DRAINAGE,Moderate,Sheboygan
161600,Lake Emily,268,10 FEET,,43.62718050,-88.96884260,Yes,No,No,"Panfish, Largemouth Bass, Northern Pike and Walleye",SPRING,Very Low,Dodge
189800,Lake Emily,108,35 FEET,16 FEET,44.47029240,-89.33781520,Yes,Yes,Yes,"Panfish, Largemouth Bass, Northern Pike, Trout and Walleye",SEEPAGE,Very Clear,Portage
2935500,Lake Galilee,212,23 FEET,11 FEET,46.28428570,-90.59318210,Yes,No,No,"Musky, Panfish, Largemouth Bass, Smallmouth Bass, Northern Pike and Walleye",DRAINAGE,Low,Ashland
994900,Lake Huron,41,46 FEET,24 FEET,44.19342410,-89.417959,Yes,No,No,"Panfish, Largemouth Bass and Walleye",SEEPAGE,Very Clear,Waushara
995000,Lake Julia,241,19 FEET,,45.61401210,-89.43037730,Yes,No,No,"Musky, Panfish, Largemouth Bass, Smallmouth Bass, Northern Pike and Walleye",SEEPAGE,Low,Oneida
852400,Lake Keesus,235,42 FEET,,43.16593230,-88.31639710,Yes,No,No,"Panfish, Largemouth Bass, Northern Pike and Walleye",SPRING,Moderate,Waukesha
802600,Lake Kegonsa,3200,32 FEET,17 FEET,42.96459090,-89.25364770,Yes,Yes,Yes,"Musky, Panfish, Largemouth Bass, Smallmouth Bass, Northern Pike, Walleye and Catfish",DRAINAGE,Low,Dane
808700,Lake Koshkonong,10595,7 FEET,5 FEET,42.87241810,-88.96121450,Yes,Yes,Yes,"Musky, Panfish, Largemouth Bass, Smallmouth Bass, Northern Pike, Walleye and Catfish",DRAINAGE,Very Low,"Rock, Dane, Jefferson"
995200,Lake Laura,628,43 FEET,,46.05703950,-89.43813190,Yes,No,Yes,"Musky, Panfish, Largemouth Bass, Smallmouth Bass and Walleye",SEEPAGE,Very Clear,Vilas
104600,Lake Lucerne,42,33 FEET,,44.02401880,-89.20872180,Yes,No,No,"Panfish, Largemouth Bass, Northern Pike and Walleye",SEEPAGE,Very Clear,Waushara
396500,Lake Lucerne,1039,73 FEET,31 FEET,45.52687620,-88.84646140,Yes,No,No,"Panfish, Largemouth Bass, Smallmouth Bass, Northern Pike, Trout and Walleye",DRAINED,Very Clear,Forest
743000,Lake Mary,327,33 FEET,9 FEET,42.52368450,-88.25623750,Yes,No,Yes,"Panfish, Largemouth Bass, Northern Pike and Walleye",DRAINED,Moderate,Kenosha
805400,Lake Mendota,9781,83 FEET,42 FEET,43.1050,-89.419940,Yes,Yes,Yes,"Musky, Panfish, Largemouth Bass, Smallmouth Bass, Northern Pike, Walleye, Sturgeon and Catfish",DRAINAGE,Low,Dane
2065900,Lake Menomin,1009,34 FEET,,44.89244040,-91.91257490,Yes,No,Yes,"Panfish, Largemouth Bass, Smallmouth Bass, Northern Pike and Walleye",DRAINAGE,Low,Dunn
2903700,Lake Millicent,183,53 FEET,26 FEET,46.52880680,-91.36775110,No,No,No,"Musky, Panfish, Largemouth Bass, Smallmouth Bass, Northern Pike and Walleye",DRAINAGE,Very Clear,Bayfield
2866200,Lake Minnesuing,450,43 FEET,18 FEET,46.46758450,-91.74487180,Yes,No,Yes,"Panfish, Largemouth Bass, Smallmouth Bass, Northern Pike, Trout and Walleye",DRAINAGE,Low,Douglas
1515400,Lake Mohawksin,1515,25 FEET,9 FEET,45.46821810,-89.750739,Yes,Yes,Yes,"Musky, Panfish, Largemouth Bass, Smallmouth Bass, Northern Pike and Walleye",DRAINAGE,Low,Lincoln
804600,Lake Monona,3359,74 FEET,27 FEET,43.06831770,-89.35813850,Yes,Yes,Yes,"Musky, Panfish, Largemouth Bass, Smallmouth Bass, Northern Pike, Walleye, Sturgeon and Catfish",DRAINAGE,Moderate,Dane
2103200,Lake Montanis,212,14 FEET,8 FEET,45.47704650,-91.70542430,Yes,No,No,"Panfish, Largemouth Bass, Northern Pike and Walleye",DRAINAGE,Low,Barron
2691500,Lake Nancy,757,39 FEET,11 FEET,46.08867950,-91.98482880,Yes,No,No,"Musky, Panfish, Largemouth Bass, Smallmouth Bass, Northern Pike and Walleye",SEEPAGE,Very Clear,Washburn
2865000,Lake Nebagamon,986,56 FEET,20 FEET,46.50252840,-91.70129470,Yes,No,No,"Panfish, Largemouth Bass, Smallmouth Bass, Northern Pike, Trout and Walleye",DRAINAGE,Moderate,Douglas
1516500,Lake Nokomis,2274,33 FEET,11 FEET,45.55896920,-89.72724160,Yes,No,Yes,"Musky, Panfish, Largemouth Bass, Smallmouth Bass, Northern Pike and Walleye",DRAINAGE,Low,"Oneida, Lincoln"
525900,Lake Noquebay,2398,51 FEET,10 FEET,45.25661650,-87.90839120,Yes,No,Yes,"Panfish, Largemouth Bass, Smallmouth Bass, Northern Pike, Trout and Walleye",DRAINAGE,Moderate,Marinette
2634200,Lake O' the Dalles,25,12 FEET,,45.393451,-92.654390,Yes,No,Yes,"Panfish, Largemouth Bass, Northern Pike and Walleye",SEEPAGE,,Polk
728100,Lake Onalaska,8391,40 FEET,6 FEET,43.90498550,-91.29927860,Yes,No,Yes,"Panfish, Largemouth Bass, Smallmouth Bass, Northern Pike and Walleye",DRAINAGE,Low,La Crosse
262600,Lake Orlando,9,39 FEET,13 FEET,44.328640,-89.185875,No,No,Yes,"Musky, Panfish, Largemouth Bass, Northern Pike and Walleye",DRAINAGE,,Waupaca
2900200,Lake Owen,1250,95 FEET,27 FEET,46.282990,-91.2271,Yes,No,Yes,"Panfish, Largemouth Bass, Smallmouth Bass, Northern Pike and Walleye",SPRING,Very Clear,Bayfield
1481600,Lake Pesobic,147,11 FEET,6 FEET,45.212784,-89.6803,Yes,No,No,"Panfish, Largemouth Bass, Northern Pike and Walleye",SEEPAGE,Moderate,Lincoln
2436500,Lake Placid,178,30 FEET,11 FEET,46.026224,-91.28136760,No,No,No,"Musky, Panfish, Largemouth Bass and Walleye",DRAINAGE,Moderate,Sawyer
242800,Lake Poygan,14024,11 FEET,,44.14622370,-88.83920920,Yes,No,Yes,"Musky, Panfish, Largemouth Bass, Smallmouth Bass, Northern Pike, Walleye, Sturgeon and Catfish",DRAINAGE,Low,"Winnebago, Waushara"
1280400,Lake Redstone,635,36.5 FEET,14 FEET,43.606663,-90.0925,Yes,Yes,Yes,"Musky, Panfish, Largemouth Bass, Northern Pike and Walleye",DRAINAGE,Low,Sauk
809600,Lake Ripley,420,44 FEET,18 FEET,43.00096090,-88.99172950,Yes,Yes,No,"Panfish, Largemouth Bass, Northern Pike and Walleye",DRAINAGE,Moderate,Jefferson
2765900,Lake Ruth,66,30 FEET,15 FEET,46.50359470,-91.42407360,No,No,Yes,"Panfish, Largemouth Bass, Northern Pike and Walleye",SEEPAGE,,Bayfield
2601500,Lake Saint Croix,7696,60 FEET,,44.74805560,-92.80464440,Yes,Yes,No,"Musky, Largemouth Bass, Smallmouth Bass, Northern Pike, Walleye, Sturgeon and Catfish",DRAINAGE,,"Saint Croix, Pierce"
996100,Lake Seventeen,176,37 FEET,,45.77894290,-89.76953110,No,No,No,"Musky, Panfish, Largemouth Bass, Smallmouth Bass, Northern Pike and Walleye",SEEPAGE,,Oneida
1377900,Lake Sherwood,216,27 FEET,10 FEET,44.20306160,-89.79140990,Yes,No,No,"Panfish, Largemouth Bass, Northern Pike and Walleye",DRAINAGE,Low,Adams
2314000,Lake Tahoe,35,32 FEET,,46.16466590,-90.08396760,No,No,No,"Musky, Panfish, Largemouth Bass, Northern Pike and Walleye",SPRING,,Iron
1569900,Lake Thompson,401,30 FEET,,45.63387780,-89.33040240,Yes,No,No,"Musky, Panfish, Largemouth Bass, Smallmouth Bass, Northern Pike and Walleye",DRAINAGE,Low,Oneida
803700,Lake Waubesa,2074,38 FEET,16 FEET,43.01148430,-89.32329870,Yes,Yes,Yes,"Musky, Panfish, Largemouth Bass, Smallmouth Bass, Northern Pike, Walleye and Catfish",DRAINAGE,Low,Dane
1437500,Lake Wausau,1851,30 FEET,7 FEET,44.93446660,-89.64742370,Yes,No,Yes,"Musky, Panfish, Largemouth Bass, Smallmouth Bass, Northern Pike and Walleye",DRAINAGE,Low,Marathon
805000,Lake Wingra,336,14 FEET,,43.05350330,-89.41944650,Yes,Yes,Yes,"Musky, Panfish, Largemouth Bass, Northern Pike and Walleye",DRAINAGE,Low,Dane
131100,Lake Winnebago,131939,21 FEET,,44.01681690,-88.40956710,Yes,Yes,Yes,"Musky, Panfish, Largemouth Bass, Smallmouth Bass, Northern Pike, Walleye, Sturgeon and Catfish",DRAINAGE,Low,"Calumet, Winnebago, Fond du Lac"
241600,Lake Winneconne,4553,9 FEET,,44.14018320,-88.73289110,Yes,No,Yes,"Musky, Panfish, Largemouth Bass, Smallmouth Bass, Northern Pike, Walleye, Sturgeon and Catfish",DRAINAGE,Low,Winnebago
1260600,Lake Wisconsin,7197,24 FEET,,43.37102280,-89.60309170,Yes,No,Yes,"Panfish, Largemouth Bass, Smallmouth Bass, Northern Pike, Trout, Walleye and Catfish",DRAINAGE,Low,"Columbia, Sauk"
2152800,Lake Wissota,6148,64.4 FEET,,44.961037,-91.320410,Yes,Yes,Yes,"Musky, Panfish, Largemouth Bass, Smallmouth Bass, Northern Pike, Walleye, Sturgeon and Catfish",DRAINAGE,Moderate,Chippewa
2298300,Lake of the Falls,297,23 FEET,7 FEET,46.16244580,-90.17109550,No,No,Yes,"Musky, Panfish, Largemouth Bass, Smallmouth Bass, Northern Pike and Walleye",DRAINAGE,Low,Iron
2275300,Lake of the Pines,273,39 FEET,17 FEET,45.77137620,-90.715417,Yes,Yes,Yes,"Musky, Panfish, Largemouth Bass and Walleye",DRAINAGE,Low,Sawyer
1611800,Laurel Lake,249,27 FEET,8 FEET,45.80876950,-89.11644470,Yes,No,Yes,"Musky, Panfish, Largemouth Bass, Smallmouth Bass, Northern Pike and Walleye",DRAINAGE,Low,Oneida
997300,Lawrence Lake,50,47 FEET,16 FEET,45.259553,-88.98283310,No,No,Yes,"Panfish, Largemouth Bass, Northern Pike and Walleye",SEEPAGE,Moderate,Langlade
167000,Lawrence Pond,217,14 FEET,8 FEET,43.88894180,-89.56272550,Yes,No,No,"Panfish, Largemouth Bass, Northern Pike and Walleye",DRAINAGE,Moderate,Marquette
843400,Lazy Lake (Fall R Millpond),206,8 FEET,4 FEET,43.39144520,-89.04170350,Yes,No,No,"Panfish, Largemouth Bass, Northern Pike and Walleye",DRAINAGE,Moderate,Columbia
2474400,Leach Lake,25,32 FEET,13 FEET,45.67217020,-92.02149830,Yes,No,No,"Panfish, Largemouth Bass and Walleye",SEEPAGE,,Washburn
2693800,Leader Lake,171,56 FEET,22 FEET,46.19413820,-91.86242960,Yes,No,No,"Panfish, Largemouth Bass, Northern Pike and Walleye",SEEPAGE,Very Clear,Douglas
519500,Leigh Flowage,238,52 FEET,12 FEET,45.04359520,-88.23316990,Yes,No,No,"Panfish, Largemouth Bass, Northern Pike and Walleye",DRAINAGE,,Oconto
1860200,Lewis Lake,52,15 FEET,9 FEET,46.08485790,-91.19041610,No,No,No,"Panfish, Largemouth Bass and Walleye",SEEPAGE,,Sawyer
376900,Lily Lake,217,24 FEET,14 FEET,45.42827220,-88.83714690,Yes,No,Yes,"Musky, Panfish, Largemouth Bass, Northern Pike and Walleye",DRAINAGE,Moderate,Forest
25800,Lime Kiln Millpond,4,7 FEET,,43.30367220,-87.95226940,No,No,No,"Panfish, Largemouth Bass, Smallmouth Bass, Northern Pike and Walleye",DRAINAGE,,Ozaukee
264900,Limekiln Lake,30,46 FEET,10 FEET,44.33466150,-89.16739280,No,No,No,"Musky, Panfish, Largemouth Bass, Smallmouth Bass, Northern Pike, Trout and Walleye",DRAINAGE,,Waupaca
2678100,Lipsett Lake,393,24 FEET,13 FEET,45.87253540,-92.04923160,Yes,No,No,"Musky, Panfish, Largemouth Bass, Northern Pike and Walleye",DRAINAGE,Low,Burnett
1545300,Little Arbor Vitae Lake,480,32 FEET,11 FEET,45.91224670,-89.62260750,Yes,No,Yes,"Musky, Panfish, Largemouth Bass and Walleye",DRAINAGE,Low,Vilas
1523500,Little Bearskin Lake,184,27 FEET,8 FEET,45.71113690,-89.69920060,Yes,No,Yes,"Musky, Panfish, Largemouth Bass, Northern Pike and Walleye",DRAINAGE,Low,Oneida
2640700,Little Butternut Lake,185,23 FEET,8 FEET,45.56809460,-92.502107,Yes,No,No,"Panfish, Largemouth Bass, Northern Pike and Walleye",DRAINAGE,,Polk
998800,Little Carr Lake,51,30 FEET,,45.80178650,-89.61903380,Yes,No,Yes,"Musky, Panfish, Largemouth Bass and Walleye",SEEPAGE,Moderate,Oneida
25100,Little Cedar Lake,260,56 FEET,13 FEET,43.37603160,-88.22781840,Yes,Yes,No,"Panfish, Largemouth Bass, Northern Pike and Walleye",DRAINAGE,Moderate,Washington
2955900,Little Crab Lake,73,26 FEET,,46.18338460,-89.70904340,Yes,No,Yes,"Musky, Largemouth Bass and Walleye",SPRING,,Vilas
2324000,Little Crawling Stone Lake,113,44 FEET,18 FEET,45.92832180,-89.89808940,Yes,No,Yes,"Musky, Panfish, Largemouth Bass, Smallmouth Bass, Northern Pike and Walleye",DRAINAGE,Very Clear,Vilas
2335500,Little Crooked Lake,154,30 FEET,,46.15085320,-89.69510940,Yes,No,Yes,"Musky, Panfish, Largemouth Bass, Northern Pike and Walleye",DRAINAGE,Moderate,Vilas
2107600,Little Devil Lake,52,34 FEET,14 FEET,45.74013460,-91.74939680,Yes,No,No,"Panfish, Largemouth Bass, Northern Pike and Walleye",DRAINED,,Washburn
1610600,Little Fork Lake,336,34 FEET,16 FEET,45.82891310,-89.11643670,No,No,Yes,"Musky, Panfish, Largemouth Bass, Smallmouth Bass, Northern Pike and Walleye",DRAINAGE,Moderate,Oneida
853100,Little Friess Lake,16,34 FEET,16 FEET,43.23989740,-88.2794,Yes,No,Yes,"Panfish, Largemouth Bass, Northern Pike and Walleye",DRAINAGE,Moderate,Washington
162500,Little Green Lake,462,28 FEET,10 FEET,43.73681490,-88.98456290,Yes,No,Yes,"Musky, Panfish, Largemouth Bass, Smallmouth Bass and Walleye",SEEPAGE,Low,Green Lake
2953000,Little Horsehead Lake,56,19 FEET,,46.24433460,-89.72119040,Yes,No,No,"Musky, Panfish, Largemouth Bass, Smallmouth Bass, Northern Pike and Walleye",DRAINAGE,,Vilas
2332300,Little John Lake,151,19 FEET,,46.01453250,-89.64526560,Yes,No,Yes,"Musky, Largemouth Bass, Smallmouth Bass, Northern Pike, Trout and Walleye",SPRING,,Vilas
2390500,Little Lac Courte Oreilles,221,46 FEET,15 FEET,45.88507240,-91.39324370,No,No,No,"Musky, Panfish, Largemouth Bass, Smallmouth Bass, Northern Pike and Walleye",DRAINAGE,,Sawyer
129800,Little Lake Butte Des Morts,1200,18 FEET,,44.212587,-88.46155250,Yes,No,Yes,"Panfish, Largemouth Bass, Smallmouth Bass, Northern Pike, Walleye, Sturgeon and Catfish",DRAINAGE,Low,Winnebago
2314700,Little Martha Lake,34,36 FEET,,46.18773910,-90.02947920,No,No,No,"Musky, Panfish, Largemouth Bass, Smallmouth Bass, Northern Pike and Walleye",DRAINAGE,,Iron
762700,Little Muskego Lake,470,65 FEET,14 FEET,42.91375950,-88.14307120,Yes,No,Yes,"Panfish, Largemouth Bass, Northern Pike and Walleye",DRAINAGE,Moderate,Waukesha
2296800,Little Muskie Lake,47,35 FEET,16 FEET,46.00534930,-90.14474520,No,No,No,"Musky, Panfish, Largemouth Bass, Northern Pike and Walleye",SEEPAGE,,Iron
502300,Little Newton Lake,59,53 FEET,15 FEET,45.36581540,-88.12427270,Yes,No,No,"Panfish, Largemouth Bass, Northern Pike and Walleye",SEEPAGE,Moderate,Marinette
2418900,Little Ole Lake,6,15 FEET,,46.09055430,-91.16928740,No,No,Yes,"Musky, Smallmouth Bass and Walleye",DRAINAGE,,Sawyer
2302400,Little Oxbow Lake,17,9 FEET,,46.221679,-90.04355160,No,No,No,"Musky, Panfish, Largemouth Bass, Smallmouth Bass, Northern Pike and Walleye",DRAINAGE,,Iron
2328200,Little Papoose Lake,45,50 FEET,,46.184159,-89.821243,No,No,Yes,"Musky, Panfish, Largemouth Bass and Walleye",DRAINAGE,,Vilas
2313100,Little Pike Lake,96,20 FEET,11 FEET,46.15456980,-90.08946390,No,No,Yes,"Panfish, Largemouth Bass, Northern Pike and Walleye",SEEPAGE,,Iron
190600,Little Pine Lake,5,11 FEET,,45.70808620,-88.98295140,No,No,Yes,Walleye,SEEPAGE,,Forest
647300,Little Quinnesec Falls Flowage,323,40 FEET,,45.792031,-88.00985040,Yes,No,No,"Panfish, Largemouth Bass, Smallmouth Bass, Northern Pike and Walleye",DRAINAGE,,Marinette
2338900,Little Rice Lake,50,7 FEET,,46.11396940,-89.63509710,Yes,No,Yes,"Musky, Panfish, Largemouth Bass, Smallmouth Bass, Northern Pike and Walleye",SPRING,,Vilas
2395500,Little Round Lake,179,38 FEET,12 FEET,45.98473020,-91.31637890,No,No,No,"Musky, Panfish, Largemouth Bass, Smallmouth Bass, Northern Pike and Walleye",SEEPAGE,,Sawyer
1596300,Little Saint Germain Lake,972,53 FEET,11 FEET,45.90327850,-89.45511150,Yes,No,No,"Musky, Panfish, Largemouth Bass, Smallmouth Bass, Northern Pike and Walleye",DRAINAGE,Low,Vilas
2477700,Little Sand Lake,71,21 FEET,12 FEET,46.15509280,-92.00129410,Yes,No,No,"Panfish, Largemouth Bass, Northern Pike and Walleye",SEEPAGE,,"Washburn, Douglas"
389700,Little Sand Lake,237,20 FEET,6 FEET,45.46997190,-88.91916470,Yes,No,No,"Panfish, Largemouth Bass, Northern Pike and Walleye",SEEPAGE,Moderate,"Langlade, Forest"
2322200,Little Sand Lake,110,32 FEET,,46.02480930,-89.82955210,No,No,No,"Musky, Panfish, Largemouth Bass, Smallmouth Bass, Northern Pike and Walleye",SPRING,,Vilas
2882200,Little Siskiwit Lake,24,16 FEET,8 FEET,46.80120270,-91.10810190,No,No,No,Panfish and Walleye,DRAINAGE,,Bayfield
2394100,Little Sissabagama Lake,308,75 FEET,20 FEET,45.75967690,-91.52191760,No,No,No,"Musky, Panfish, Largemouth Bass, Smallmouth Bass and Walleye",SEEPAGE,Moderate,Sawyer
1540400,Little Spider Lake,223,23 FEET,13 FEET,45.97114650,-89.70841720,No,No,Yes,"Musky, Panfish, Largemouth Bass, Smallmouth Bass and Walleye",SEEPAGE,Moderate,Vilas
2334300,Little Star Lake,260,67 FEET,31 FEET,46.11528820,-89.86146620,Yes,No,Yes,"Musky, Panfish, Largemouth Bass, Smallmouth Bass, Northern Pike and Walleye",DRAINAGE,,Vilas
1862400,Little Stone Lake,27,13 FEET,9 FEET,45.85506590,-91.55445110,No,No,No,"Panfish, Largemouth Bass, Smallmouth Bass, Northern Pike and Walleye",SEEPAGE,,Washburn
2318100,Little Sugarbush Lake,46,26 FEET,,46.02836880,-89.86532390,No,No,No,"Musky, Panfish, Largemouth Bass, Northern Pike and Walleye",SPRING,,Vilas
1543900,Little Tomahawk Lake,163,48 FEET,28 FEET,45.79692660,-89.63746340,No,No,Yes,"Musky, Panfish, Largemouth Bass, Smallmouth Bass, Northern Pike and Walleye",SPRING,Very Clear,Oneida
2321600,Little Trout Lake,1007,98 FEET,25 FEET,46.06514140,-89.85271290,No,No,Yes,"Musky, Panfish, Largemouth Bass, Smallmouth Bass, Trout and Walleye",SEEPAGE,,Vilas
146400,Little Twin Lake,25,46 FEET,4 FEET,43.79665190,-88.96968860,No,No,No,"Panfish, Largemouth Bass, Northern Pike and Walleye",DRAINAGE,Low,Green Lake
2674800,Little Yellow Lake,332,21 FEET,10 FEET,45.92922240,-92.43077730,No,No,No,"Musky, Panfish, Largemouth Bass, Smallmouth Bass, Northern Pike, Walleye, Sturgeon and Catfish",DRAINAGE,,Burnett
865000,Lomira Pond,3,6 FEET,,43.58804030,-88.44214690,No,No,Yes,"Panfish, Largemouth Bass, Northern Pike and Walleye",DRAINAGE,,Dodge
2961600,Lone Pine Lake,137,41 FEET,,46.21385690,-89.61736410,No,No,No,"Musky, Panfish, Largemouth Bass, Smallmouth Bass, Northern Pike and Walleye",DRAINAGE,,Vilas
1605600,Lone Stone Lake,171,30 FEET,,45.86535660,-89.08255610,Yes,No,Yes,"Musky, Panfish, Largemouth Bass, Smallmouth Bass, Northern Pike and Walleye",DRAINED,Moderate,Oneida
2322300,Long Interlaken Lake,380,65 FEET,,45.96001710,-89.90098270,No,No,No,"Musky, Panfish, Largemouth Bass, Smallmouth Bass, Northern Pike and Walleye",DRAINAGE,Very Clear,Vilas
2351400,Long Lake,936,101 FEET,20 FEET,45.25198970,-91.403812,Yes,Yes,Yes,"Musky, Panfish, Largemouth Bass, Smallmouth Bass, Northern Pike and Walleye",DRAINAGE,Very Clear,Chippewa
261200,Long Lake,112,76 FEET,30 FEET,44.32262410,-89.18149860,No,No,Yes,"Musky, Panfish, Largemouth Bass, Smallmouth Bass, Northern Pike, Trout and Walleye",SPRING,Very Clear,Waupaca
2106800,Long Lake,3478,74 FEET,26 FEET,45.70713490,-91.67057050,Yes,No,Yes,"Panfish, Largemouth Bass, Smallmouth Bass, Northern Pike and Walleye",DRAINAGE,Low,Washburn
2303500,Long Lake,370,34 FEET,13 FEET,46.25985030,-90.02602010,No,No,No,"Musky, Panfish, Largemouth Bass, Smallmouth Bass, Northern Pike and Walleye",DRAINAGE,,Iron
1618300,Long Lake,59,15 FEET,,45.826806,-89.27112730,No,No,No,"Musky, Panfish, Largemouth Bass, Northern Pike and Walleye",DRAINAGE,Moderate,Oneida
2664500,Long Lake,83,11 FEET,6 FEET,45.73603990,-91.952756,No,No,No,"Panfish, Largemouth Bass, Northern Pike and Walleye",SEEPAGE,,Washburn
1609000,Long Lake,604,31 FEET,13 FEET,45.86865470,-89.14329940,Yes,No,No,"Musky, Panfish, Largemouth Bass, Smallmouth Bass, Northern Pike and Walleye",DRAINAGE,Low,Oneida
1602300,Long Lake,886,88 FEET,30 FEET,46.06449060,-89.02247970,Yes,No,Yes,"Musky, Panfish, Largemouth Bass, Smallmouth Bass, Northern Pike, Trout and Walleye",DRAINAGE,Moderate,Vilas
2282000,Long Lake,238,49 FEET,17 FEET,45.81593920,-90.66464920,No,No,Yes,"Musky, Panfish, Largemouth Bass, Smallmouth Bass, Northern Pike and Walleye",DRAINAGE,Moderate,Price
2674100,Long Lake,222,41 FEET,18 FEET,45.990729,-92.13028080,Yes,No,No,"Panfish, Largemouth Bass, Northern Pike and Walleye",SEEPAGE,Very Clear,Burnett
191100,Long Lake,254,71 FEET,,44.21630050,-89.12494120,Yes,No,No,"Panfish, Largemouth Bass, Northern Pike and Walleye",SEEPAGE,Very Clear,Waushara
2767100,Long Lake,280,28 FEET,12 FEET,46.58188940,-91.34373710,Yes,No,No,"Panfish, Largemouth Bass, Northern Pike and Walleye",SEEPAGE,Moderate,Bayfield
38700,Long Lake,423,47 FEET,22 FEET,43.67399740,-88.17054960,Yes,Yes,Yes,"Panfish, Largemouth Bass, Northern Pike and Walleye",DRAINAGE,Moderate,"Sheboygan, Fond du Lac"
702500,Long Lake,73,75 FEET,27 FEET,45.89350160,-88.126781,No,No,No,"Panfish, Largemouth Bass, Smallmouth Bass, Northern Pike and Walleye",DRAINAGE,Moderate,Florence
728400,Long Lake,54,11 FEET,,43.98219240,-91.408329,Yes,No,No,"Panfish, Largemouth Bass, Northern Pike, Walleye and Catfish",DRAINED,,"La Crosse, Trempealeau"
1001300,Long Lake,113,58 FEET,,45.71746880,-89.60466250,Yes,No,Yes,"Musky, Panfish, Largemouth Bass and Walleye",SEEPAGE,Very Clear,Oneida
1236600,Long Lake,72,10 FEET,4 FEET,43.17138890,-90.19493330,Yes,No,No,"Panfish, Largemouth Bass, Northern Pike, Walleye and Catfish",DRAINAGE,,"Sauk, Richland"
1252500,Long Lake,5,10 FEET,,43.20102210,-89.86990490,No,No,No,"Panfish, Largemouth Bass, Northern Pike, Walleye and Catfish",SPRING,,Sauk
2239300,Long Lake,419,54 FEET,11 FEET,45.693454,-90.43385330,No,No,No,"Musky, Panfish, Largemouth Bass, Smallmouth Bass, Northern Pike and Walleye",DRAINAGE,Low,Price
721800,Long Slough,35,10 FEET,,42.68663930,-90.93256620,No,No,Yes,"Panfish, Largemouth Bass, Northern Pike, Walleye and Catfish",DRAINED,,Grant
2478600,Loon Lake,91,26 FEET,11 FEET,45.469462,-92.12892320,Yes,No,Yes,"Panfish, Largemouth Bass, Northern Pike and Walleye",SEEPAGE,,Barron
323800,Loon Lake,327,22 FEET,9 FEET,44.83353160,-88.51053270,Yes,No,No,"Panfish, Largemouth Bass, Northern Pike and Walleye",DRAINAGE,Moderate,Shawano
2339800,Lost Canoe Lake,279,41 FEET,,46.07573620,-89.59503970,Yes,No,Yes,"Musky, Panfish, Largemouth Bass, Smallmouth Bass, Northern Pike and Walleye",SEEPAGE,Very Clear,Vilas
1593400,Lost Lake,539,20 FEET,,45.96554060,-89.48311580,Yes,No,No,"Musky, Panfish, Largemouth Bass, Northern Pike and Walleye",DRAINAGE,Low,Vilas
2418600,Lost Land Lake,1264,21 FEET,12 FEET,46.10105880,-91.14615280,Yes,No,Yes,"Musky, Panfish, Largemouth Bass, Smallmouth Bass, Northern Pike and Walleye",DRAINAGE,Low,Sawyer
2671000,Love Lake,207,63 FEET,22 FEET,45.97331310,-92.328940,No,No,No,"Panfish, Largemouth Bass, Northern Pike and Walleye",DRAINAGE,,Burnett
2395900,Lovejoy Lake,77,24 FEET,13 FEET,46.00606290,-91.28694360,No,No,No,"Panfish, Largemouth Bass, Northern Pike and Walleye",SEEPAGE,,Sawyer
1621000,Lower Buckatabon Lake,378,16 FEET,,46.02587960,-89.32138750,No,No,No,"Musky, Panfish, Largemouth Bass, Smallmouth Bass, Northern Pike and Walleye",DRAINAGE,Moderate,Vilas
2429300,Lower Clam Lake,214,30 FEET,,46.13859470,-90.94214830,Yes,No,Yes,"Musky, Panfish, Largemouth Bass, Smallmouth Bass and Walleye",DRAINAGE,Low,Sawyer
2655300,Lower Clam Lake,366,14 FEET,7 FEET,45.82640680,-92.32187860,Yes,No,No,"Panfish, Largemouth Bass, Smallmouth Bass, Northern Pike, Walleye, Sturgeon and Catfish",DRAINAGE,,Burnett
1864000,Lower Devils Lake,131,26 FEET,9 FEET,45.62626060,-91.76108950,No,No,No,"Panfish, Largemouth Bass, Smallmouth Bass, Northern Pike and Walleye",SEEPAGE,,Barron
2741600,Lower Eau Claire Lake,784,41 FEET,22 FEET,46.27323750,-91.55107480,No,No,Yes,"Musky, Panfish, Largemouth Bass, Smallmouth Bass, Northern Pike and Walleye",DRAINAGE,Moderate,"Douglas, Bayfield"
2330300,Lower Gresham Lake,149,12 FEET,,46.04286730,-89.75036620,No,No,Yes,"Musky, Panfish, Largemouth Bass, Northern Pike and Walleye",DRAINAGE,,Vilas
